Id,title,score,desc,url,lat,lon,location
0,L'ancien Presbytère d'Ardevon,9.6,Établissement Voyage Durable,https://www.booking.com/hotel/fr/l-39-ancien-presbytere-d-39-ardevon.fr.html,48.60332434,-1.47639652,Mont Saint Michel
1,"Maison chaleureuse, spacieuse et familiale",9.6,Établissement Voyage Durable,https://www.booking.com/hotel/fr/maison-chaleureuse-spacieuse-et-familiale.fr.html,48.5965771,-1.5052038,Mont Saint Michel
2,le coin des hirondelles,9.6,"Situé à Pontorson, l'établissement le coin des hirondelles propose un service de prêt de vélos, un jardin, un barbecue, une connexion Wi-Fi gratuite et une vue sur le jardin. ",https://www.booking.com/hotel/fr/le-coin-des-hirondelles.fr.html,48.6028643,-1.474069,Mont Saint Michel
3,Etoile des Grèves,9.3,"Situé à Ardevon, en Basse-Normandie, l'Etoile des Grèves propose des hébergements avec connexion Wi-Fi et parking privé gratuits. ",https://www.booking.com/hotel/fr/etoile-des-greves.fr.html,48.615509,-1.491524,Mont Saint Michel
4,La Jacotière,9.3,"Implantée à Ardevon, la maison d'hôtes La Jacotière occupe une ancienne ferme rénovée pourvue d'un jardin et d'une terrasse meublée donnant sur le Mont-Saint-Michel, situé à seulement 3 km. ",https://www.booking.com/hotel/fr/la-jacotia-re.fr.html,48.61411436,-1.50431424,Mont Saint Michel
5,Chambres d'Hôtes Les Vieilles Digues,9.3,"Occupant une maison bretonne restaurée, l'établissement à la gestion familiale Chambres d'Hôtes Les Vieilles Digues est situé à Beauvoir, à 3 km du Mont-Saint-Michel. ",https://www.booking.com/hotel/fr/chambres-d-ha-tes-les-vieilles-digues.fr.html,48.6041875,-1.51159912,Mont Saint Michel
6,Résidence Beauvoir le Mont-Saint-Michel (9 gîtes de 2 à 5 personnes),9.3,Établissement Voyage Durable,https://www.booking.com/hotel/fr/residence-beauvoir-le-mont-saint-michel.fr.html,48.59787845,-1.50841866,Mont Saint Michel
7,Gites Bellevue,9.3,"Situé à seulement 2 km du célèbre Mont-Saint-Michel, l'établissement Gites Bellevue vous propose des gîtes indépendants avec terrasse, jardin et barbecue. ",https://www.booking.com/hotel/fr/gites-bellevue.fr.html,48.60788007,-1.51722372,Mont Saint Michel
8,Vent des Grèves,9.2,"Offrant une vue sur le jardin, le Vent des Grèves est situé à Pontorson, à 8,1 km de l'abbaye du Mont-Saint-Michel. Vous bénéficierez gratuitement d'une connexion Wi-Fi et d'un parking privé. ",https://www.booking.com/hotel/fr/vent-des-greves-pontorson.fr.html,48.615403,-1.49144,Mont Saint Michel
9,Au Mont Chez Nous Jaccuzi et Sauna,9.2,"Situé à Pontorson, à seulement 8,6 km de l'abbaye du Mont-Saint-Michel, l'établissement Au Mont Chez Nous Jaccuzi et Sauna propose un hébergement avec un accès à un salon commun, un jardin et une...",https://www.booking.com/hotel/fr/26-route-de-la-rive-ardevon.fr.html,48.6134553,-1.4858723,Mont Saint Michel
10,Le Goeland,9.1,"Le Goeland est situé à Beauvoir, à 23 km du Scriptorial d'Avranches, musee des manuscrits Le Mont Saint-Michel se trouve à 45 km du port de la Houle et à 48 km de la gare de Granville. ",https://www.booking.com/hotel/fr/le-goeland-beauvoir.fr.html,48.59750289,-1.50417254,Mont Saint Michel
11,Maison au pied du Mont Saint Michel,9.1,"Offrant une vue sur le jardin, la Maison au pied du Mont Saint Michel propose un hébergement avec une terrasse et une bouilloire, à environ 21 km du Scriptorial d'Avranches, musee des manuscrits. ",https://www.booking.com/hotel/fr/maison-au-pied-du-mont-saint-michel.fr.html,48.61267358,-1.48553065,Mont Saint Michel
12,A L'Ombre du Mont St Michel,9.0,Établissement Voyage Durable,https://www.booking.com/hotel/fr/a-l-ombre-du-mont-st-michel.fr.html,48.61591354,-1.46560172,Mont Saint Michel
13,La Greve Saint Michel,9.0,"Offrant une vue sur le jardin, La Greve Saint Michel propose un hébergement avec une terrasse et une bouilloire, à environ 5 km de l'abbaye du Mont-Saint-Michel. ",https://www.booking.com/hotel/fr/la-greve-saint-michel.fr.html,48.59775819,-1.51228422,Mont Saint Michel
14,L'Hirondelle,9.0,"La maison de vacances L'Hirondelle, située à Pontorson, possède une terrasse et une cuisine entièrement équipée. ",https://www.booking.com/hotel/fr/l-39-hirondelle-pontorson.fr.html,48.615795,-1.488712,Mont Saint Michel
15,Mon Saint Michel,8.8,Établissement Voyage Durable,https://www.booking.com/hotel/fr/mon-saint-michel.fr.html,48.613627,-1.485791,Mont Saint Michel
16,Les 2 Clos,8.8,"Doté d'un service de prêt de vélos, l'établissement Les 2 Clos propose des hébergements à Ardevon. ",https://www.booking.com/hotel/fr/les-deux-clos-pontorson.fr.html,48.6139661,-1.48579173,Mont Saint Michel
17,Le Héron,8.7,"Doté d'une terrasse, l'établissement Le Héron est situé à Huisnes-sur-Mer, à 19 km du Scriptorial d'Avranches, musee des manuscrits. ",https://www.booking.com/hotel/fr/le-heron-huisnes-sur-mer.fr.html,48.6100841,-1.4567376,Mont Saint Michel
18,La Mouette,8.7,"La Mouette est située à Beauvoir, à 23 km du Scriptorial d'Avranches, musee des manuscrits Le Mont Saint-Michel se trouve à 45 km du port de la Houle et à 48 km de la gare de Granville. ",https://www.booking.com/hotel/fr/la-mouette-beauvoir1.fr.html,48.5973035,-1.50453892,Mont Saint Michel
19,Ermitage - Mont-Saint-Michel,8.4,Établissement Voyage Durable,https://www.booking.com/hotel/fr/ermitage-mont-saint-michel-beauvoir.fr.html,48.59449,-1.511429,Mont Saint Michel
20,O rivage du Mont 5 pers,8.4,"Doté d'une terrasse, l'O rivage du Mont 5 pers est situé à Huisnes-sur-Mer, à 11 km de l'abbaye du Mont-Saint-Michel et à 18 km du Scriptorial d'Avranches, musee des manuscrits. ",https://www.booking.com/hotel/fr/o-rivage-du-mont.fr.html,48.61931018,-1.45919003,Mont Saint Michel
21,O rivage du Mont 10/12 pers,8.4,Établissement Voyage Durable,https://www.booking.com/hotel/fr/o-rivage-du-mont-10-12-pers.fr.html,48.62142541,-1.4543677,Mont Saint Michel
22,"Chambres d'Hôtes Farcy ""La P'tite Transhumance""",8.3,"L'établissement Chambres d'Hôtes Farcy est situé dans la campagne d'Ardevon, à seulement 10 minutes en voiture du Mont-Saint-Michel. ",https://www.booking.com/hotel/fr/chambres-d-hotes-farcy.fr.html,48.61435411,-1.48705352,Mont Saint Michel
23,Mercure Mont Saint Michel,8.2,Établissement Voyage Durable,https://www.booking.com/hotel/fr/mont-saint-michel.fr.html,48.61424653,-1.51054502,Mont Saint Michel
24,Au Mont Pour Deux,8.2,L'établissement Au Mont Pour Deux est situé à Pontorson. Cet hébergement climatisé se trouve à 37 km de Cancale. Vous bénéficierez gratuitement d'une connexion Wi-Fi et d'un parking privé sur place. ,https://www.booking.com/hotel/fr/au-mont-pour-deux.fr.html,48.61349776,-1.48584455,Mont Saint Michel
25,Le Corsaire de Solidor,9.8,"Situé à Saint-Malo, à seulement 100 mètres de la plage des Bas-Sablons, l'établissement Le Corsaire de Solidor propose un hébergement en bord de mer avec connexion Wi-Fi gratuite. ",https://www.booking.com/hotel/fr/le-corsaire-de-solidor.fr.html,48.6354834,-2.0224901,St Malo
26,Studio T1BIS BORD DE PLAGE,9.8,Établissement Voyage Durable,https://www.booking.com/hotel/fr/studio-t1bis-bord-de-plage.fr.html,48.6344023,-2.0836826,St Malo
27,Le Plongeoir de Bon-Secours,9.8,"Doté d'une connexion Wi-Fi gratuite, l'établissement Le Plongeoir de Bon-Secours est situé à Saint-Malo, à 200 mètres de la plage de Bon Secours, à 300 mètres de celle de Mole et à 600 mètres de celle...",https://www.booking.com/hotel/fr/le-bon-secours.fr.html,48.6480942,-2.0275281,St Malo
28,L'ILOT,9.8,"L'ILOT vous accueille dans une maison de vacances dotée d'une terrasse à Saint-Malo, à 2,4 km de l'Espace Duguay-Trouin et du Palais du Grand Large. ",https://www.booking.com/hotel/fr/l-39-ilot.fr.html,48.6611346,-1.98755309,St Malo
29,Le Pilo,9.7,"Situé à Saint-Malo, à seulement 300 mètres de la plage de Bon Secours, l'établissement Le Pilo propose un hébergement en bord de mer avec connexion Wi-Fi gratuite. ",https://www.booking.com/hotel/fr/le-pilori.fr.html,48.648992,-2.0256258,St Malo
30,Apartment Le 1727,9.7,"Situé à seulement 5 minutes à pied de la plage, l'Apartment Le 1725 - Le 1727 propose un hébergement à Saint-Malo, dans un bâtiment historique construit en 1727. ",https://www.booking.com/hotel/fr/apartment-le-1725-1727.fr.html,48.646808,-2.024251,St Malo
31,Résidence Quai Sud-Le Cartier,9.7,"Installé à Saint-Malo, à seulement 500 mètres de la vieille ville, cet appartement dispose d'une connexion Wi-Fi et d'un balcon. ",https://www.booking.com/hotel/fr/residence-quai-sud-le-cartier-saint-malo.fr.html,48.65171737,-2.01660376,St Malo
32,Studio Le sillon malouin vue mer,9.7,"Situé dans le quartier du Sillon à Saint-Malo, à proximité de la plage du Sillon, le Studio Le sillon malouin vue mer dispose d'une terrasse et d'un lave-linge. ",https://www.booking.com/hotel/fr/studio-vue-mer-saint-malo.fr.html,48.6536946,-2.0108128,St Malo
33,Villa Fleurette,9.7,Établissement Voyage Durable,https://www.booking.com/hotel/fr/bed-and-breakfast-les-fleurettes.fr.html,48.65542609,-1.9837423,St Malo
34,L'ILE AUX MOUETTES - en plein Intra-Muros,9.7,"Situé à Saint-Malo, à 300 mètres de la plage de Bon Secours, à 400 mètres de celle de Mole et à 600 mètres de celle d'Eventail, l'établissement L'ILE AUX MOUETTES - en plein Intra-Muros propose un...",https://www.booking.com/hotel/fr/ile-aux-mouettes-en-plein-intra-muros.fr.html,48.64878589,-2.02571677,St Malo
35,"Dinard, très bel appartement***** avec vue sur mer",9.7,Établissement Voyage Durable,https://www.booking.com/hotel/fr/dinard-tres-bel-appartement-avec-vue-sur-mer.fr.html,48.63485174,-2.04889823,St Malo
36,BISLAYNE,9.7,"Situé à Saint-Malo, à seulement 300 mètres de la plage du Sillon, le BISLAYNE propose un hébergement avec un jardin, un barbecue, une terrasse et une connexion Wi-Fi gratuite. ",https://www.booking.com/hotel/fr/bislayne.fr.html,48.6611268,-1.9890825,St Malo
37,Villa Saint Raphaël,9.6,"La Villa Saint Raphaël vous accueille dans une villa rénovée datant du XIXe siècle, à 5 minutes en voiture du centre de Saint-Malo et à 100 mètres de la plage. ",https://www.booking.com/hotel/fr/villa-saint-raphael-saint-malo.fr.html,48.6292419,-2.014493,St Malo
38,Vue mer exceptionnelle,9.6,"Situé à Dinard, à 500 mètres de la plage de l'Écluse et à 700 mètres de celle de Malouine, le Vue mer exceptionnelle propose un hébergement avec une cuisine. ",https://www.booking.com/hotel/fr/vue-mer-exceptionnelle-dinard.fr.html,48.635592,-2.0557986,St Malo
39,Villa Louisa,9.6,Établissement Voyage Durable,https://www.booking.com/hotel/fr/villa-louisa-saint-malo123.fr.html,48.636573,-2.014444,St Malo
40,HEOL - appartement 2 chambres - vue mer et parking,9.6,"Doté d'une connexion Wi-Fi et d'un parking privé gratuits, le HEOL - appartement 2 chambres - vue mer et parking est situé à Dinard, à seulement 600 mètres de la plage du Prieure. ",https://www.booking.com/hotel/fr/heol-appartement-2-chambres-vue-mer-et-parking.fr.html,48.6240759,-2.0443233,St Malo
41,Le Pas Saint Joseph,9.6,"Doté d'un jardin, l'établissement Le Pas Saint Joseph se situe à Saint-Malo, à seulement 30 minutes de marche de la vieille ville. La tour Solidor se trouve à 12 minutes à pied. ",https://www.booking.com/hotel/fr/le-pas-saint-joseph-saint-malo1.fr.html,48.631113,-2.013532,St Malo
42,Le Servannais,9.6,"Offrant une vue sur la ville, Le Servannais propose un hébergement avec une terrasse et une bouilloire, à environ 700 mètres de la plage des Fours à Chaux. ",https://www.booking.com/hotel/fr/le-servannais.fr.html,48.633066,-2.0122031,St Malo
43,Capitainerie Clos Morin,9.5,"Située à Saint-Malo, la Capitainerie Clos Morin propose une connexion Wi-Fi gratuite, un bar, un salon commun et un jardin. ",https://www.booking.com/hotel/fr/capitainerie-clos-morin.fr.html,48.618692,-2.00908,St Malo
44,Villa Simone vue mer 2min à pied de la plage,9.5,Établissement Voyage Durable,https://www.booking.com/hotel/fr/villa-vue-mer-2min-a-pied-de-la-plage.fr.html,48.6333399,-2.0855872,St Malo
45,Apartment Le 1725,9.5,Établissement Voyage Durable,https://www.booking.com/hotel/fr/apartment-le-1725.fr.html,48.64666666,-2.02641111,St Malo
46,La Conchee,9.5,"La maison de vacances La Conchée est située à Saint-Malo, dans le quartier de Rothéneuf, à 15 minutes de route de la vieille ville. ",https://www.booking.com/hotel/fr/la-conchee.fr.html,48.67741279,-1.98646032,St Malo
47,Villa Marlotte by Cocoonr - La Belle de Dinard,9.5,"Située à Dinard, à 1,2 km de la plage de Vicomte, à 1,8 km de celle de Port la Vicomte et à 2,1 km de celle d'Ecluse, la Villa Marlotte by Cocoonr - La Belle de Dinard propose un hébergement avec une...",https://www.booking.com/hotel/fr/villa-marlotte-la-belle-de-dinard.fr.html,48.623214,-2.0481153,St Malo
48,L'Escale en Bretagne,9.5,"Situé à Saint-Malo, à 1 km de la plage du Sillon, à 1,5 km de celle d'Eventail et à 1,7 km de celle des Bas-Sablons, L'Escale en Bretagne propose un hébergement avec une terrasse et une connexion...",https://www.booking.com/hotel/fr/l-escale-en-bretagne.fr.html,48.64710769,-2.00891114,St Malo
49,Appartement de charme,9.5,"Doté d'une connexion Wi-Fi gratuite, l'Appartement de charme est situé à Saint-Malo, à 300 mètres de la plage de Mole, de celle de Bon Secours et à moins de 1 km de celle d'Eventail. ",https://www.booking.com/hotel/fr/appartement-de-charme-saint-malo1.fr.html,48.64674193,-2.02607118,St Malo
50,Tiny house au cœur de Bayeux,9.8,"Situé à Bayeux, en Basse-Normandie, à proximité du musée de la Tapisserie de Bayeux et du musée Baron Gérard, le Tiny house au cœur de Bayeux propose des hébergements avec connexion Wi-Fi et parking...",https://www.booking.com/hotel/fr/tiny-house-au-coeur-de-bayeux.fr.html,49.2755584,-0.6992038,Bayeux
51,Chambre d'hôte le 18-20,9.8,"Située à 2,9 km du musée de la Tapisserie de Bayeux, la Chambre d'hôte le 18-20 propose des hébergements avec connexion Wi-Fi et parking privé gratuits. ",https://www.booking.com/hotel/fr/chambre-d-hote-le-18-20.fr.html,49.26722843,-0.672025,Bayeux
52,"La Maîtrise, au cœur de Bayeux",9.8,"Dotée d'une terrasse, La Maîtrise, au cœur de Bayeux est située à Bayeux, à 200 mètres du musée Baron Gérard, à 300 mètres de la cathédrale Notre-Dame de Bayeux et à 400 mètres du musée de la...",https://www.booking.com/hotel/fr/la-maitrise-au-coeur-de-bayeux.fr.html,49.2758139,-0.7053254,Bayeux
53,Clos de Bellefontaine B&B,9.7,"Le Clos de Bellefontaine occupe une maison du XIXe siècle dans un parc de 2 000 m², située à seulement 200 mètres du musée de la Tapisserie de Bayeux et à 6 km d'Omaha Beach. ",https://www.booking.com/hotel/fr/chambres-d-ha-tes-clos-de-bellefontaine-bayeux.fr.html,49.27267164,-0.69486111,Bayeux
54,Le Chat Qui Veille,9.7,Établissement Voyage Durable,https://www.booking.com/hotel/fr/gite-6-47-9-personnes-bayeux.fr.html,49.284642,-0.714551,Bayeux
55,Manoir Saint Hubert,9.7,"Le Manoir Saint Hubert est situé à Saint-Vigor-le-Grand, à 10 minutes à pied du centre-ville. Cette chambre d'hôtes propose un barbecue et un jardin. ",https://www.booking.com/hotel/fr/manoir-saint-hubert-saint-vigor-le-grand-bayeux.fr.html,49.27825099,-0.68936087,Bayeux
56,Le Grand Arbre,9.7,"Situé à Bayeux, en Basse-Normandie, à 800 mètres du musée de la Tapisserie, l'établissement Le Grand Arbre dispose d'une terrasse bien exposée et offre une vue sur le jardin. ",https://www.booking.com/hotel/fr/le-grand-arbre.fr.html,49.273359,-0.6905433,Bayeux
57,Les Lilas de Bellefontaine,9.7,Établissement Voyage Durable,https://www.booking.com/hotel/fr/les-lilas-de-bellefontaine.fr.html,49.27276264,-0.69479406,Bayeux
58,Manoir Sainte Victoire,9.6,"Doté d'un jardin et d'une connexion Wi-Fi gratuite, le Manoir Sainte Victoire propose des hébergements bien situés à Bayeux, à proximité du musée Baron-Gérard, de la cathédrale Notre-Dame de Bayeux et...",https://www.booking.com/hotel/fr/manoir-sainte-victoire.fr.html,49.27649171,-0.7057596,Bayeux
59,Villa Lara Hotel,9.6,"La Villa Lara Hotel est un petit boutique hôtel de luxe situé dans le centre historique de Bayeux, en face de la cathédrale du XIe siècle et à seulement 2 minutes à pied de la Tapisserie de Bayeux. ",https://www.booking.com/hotel/fr/villa-lara-ha-tel.fr.html,49.27551886,-0.70096448,Bayeux
60,Chambres d'Hôtes Le Petit Sully,9.6,"L'établissement Le Petit Sully est implanté à Sully, à 4 km seulement de Bayeux. Lors de votre séjour, vous pourrez profiter de la piscine extérieure et de la bibliothèque. ",https://www.booking.com/hotel/fr/le-petit-sully.fr.html,49.29875074,-0.73583454,Bayeux
61,chez diane,9.6,"Offrant une vue sur le jardin, l'hébergement chez diane est situé à Barbeville, à 4,3 km de la cathédrale Notre-Dame de Bayeux et à 4,4 km du musée Baron-Gérard. ",https://www.booking.com/hotel/fr/chez-diane.fr.html,49.27208077,-0.75553586,Bayeux
62,La Tour Bayeux,9.6,"L'établissement La Tour Bayeux propose un hébergement à Bayeux, à 300 mètres du musée de la Tapisserie de Bayeux et à 5 minutes à pied du musée Baron Gérard. ",https://www.booking.com/hotel/fr/la-tour-bayeux-bayeux.fr.html,49.275714,-0.698042,Bayeux
63,Hotel Particulier de Sainte Croix,9.5,"Doté d'un jardin, l'Hotel Particulier de Sainte Croix propose un hébergement avec une connexion Wi-Fi gratuite et une vue sur la ville à Bayeux. ",https://www.booking.com/hotel/fr/de-sainte-croix.fr.html,49.27990374,-0.70877506,Bayeux
64,Château Saint Gilles,9.5,"Situé à Bayeux, à 4,6 km du musée Baron Gérard, le Château Saint Gilles propose un restaurant, un parking privé gratuit, une piscine extérieure ouverte en saison et un bar. ",https://www.booking.com/hotel/fr/chateau-saint-gilles.fr.html,49.249366,-0.712469,Bayeux
65,LOGIS DU GRAND PIN,9.5,"Offrant une vue sur le jardin, le LOGIS DU GRAND PIN est situé à Bayeux, à 4,1 km du musée de la Tapisserie de Bayeux. Vous bénéficierez gratuitement d'une connexion Wi-Fi et d'un parking privé. ",https://www.booking.com/hotel/fr/logis-du-grand-pin.fr.html,49.2520036,-0.6698477,Bayeux
66,"Appartement centre-ville Bayeux, tout à pied !",9.5,Établissement Voyage Durable,https://www.booking.com/hotel/fr/appartement-centre-ville-bayeux-tout-a-pied-bayeux.fr.html,49.2764341,-0.6999725,Bayeux
67,Suzon appartement idéalement situé,9.5,"Le Suzon appartement idéalement situé à Bayeux propose un hébergement avec connexion Wi-Fi gratuite, à 300 mètres du musée de la Tapisserie de Bayeux, à 500 mètres du musée Baron Gérard et à 700...",https://www.booking.com/hotel/fr/suzon-appartement-idealement-situe.fr.html,49.2759148,-0.6991753,Bayeux
68,Appartement Bayeux,9.5,"Situé à Bayeux, à seulement 300 mètres du musée de la Tapisserie, l'Appartement Bayeux propose un hébergement en bord de mer avec connexion Wi-Fi gratuite. ",https://www.booking.com/hotel/fr/appartement-bayeux.fr.html,49.27632,-0.699237,Bayeux
69,La Citadine,9.5,L'établissement La Citadine est un hébergement indépendant situé dans le centre ville de Bayeux. Il dispose d'une chambre séparée et d'une connexion Wi-Fi gratuite. ,https://www.booking.com/hotel/fr/la-citadine.fr.html,49.280064,-0.709077,Bayeux
70,Gîte de l'Ardoisier the slaty place,9.5,"Doté d'une salle de sport, le Gîte de l'Ardoisier the Slaty place est situé à Guéron, à 3,1 km du musée Baron-Gérard, à 3,2 km de la cathédrale Notre-Dame de Bayeux et à 3,3 km du musée de la...",https://www.booking.com/hotel/fr/le-montmirel.fr.html,49.25731927,-0.72057875,Bayeux
71,La Paresse en Ville,9.5,"Doté d'une piscine et d'une terrasse, l'établissement La Paresse en Ville est situé à Bayeux, à 1,2 km de la cathédrale Notre-Dame de Bayeux. Il propose des hébergements avec une cuisine. ",https://www.booking.com/hotel/fr/la-paresse-en-ville.fr.html,49.285735,-0.715824,Bayeux
72,Le Petit Matin,9.4,Établissement Voyage Durable,https://www.booking.com/hotel/fr/le-petit-matin.fr.html,49.27606133,-0.70905536,Bayeux
73,"Le Tardif, Noble Guesthouse",9.4,"Le Tardif, Noble Guesthouse occupe un manoir privé datant du XVIIIe siècle situé dans l'ancien jardin botanique de Bayeux. Il propose des chambres ornées de mobilier d'époque et de parquet vernis. ",https://www.booking.com/hotel/fr/tardif-noble-guesthouse.fr.html,49.27454414,-0.70200115,Bayeux
74,Les Pérelles,9.4,Établissement Voyage Durable,https://www.booking.com/hotel/fr/chambres-insolites.fr.html,49.30494808,-0.68582174,Bayeux
75,NOUVEAU - Vivez La forêt à la Marina - Résidence de France,9.7,"Le NOUVEAU - Vivez La forêt à la Marina - Résidence de France est situé au Havre, dans le quartier de Perret, à moins de 1 km de la plage du Havre, à 6 minutes à pied de l'église Saint-Joseph et à 1...",https://www.booking.com/hotel/fr/nouveau-vivez-la-foret-a-la-marina-residence-de-france.fr.html,49.48801811,0.09973376,Le Havre
76,Vivez La vue mer - Studio - Port de plaisance - Plage,9.7,"Doté d'une connexion Wi-Fi gratuite et offrant une vue sur la mer, le Vivez La vue mer - Studio - Port de plaisance - Plage est un hébergement situé au Havre, à moins de 1 km de la plage du Havre et à...",https://www.booking.com/hotel/fr/vivez-la-vue-mer-port-de-plaisance-plage.fr.html,49.48794455,0.09892914,Le Havre
77,Les chambres du Chat Perché,9.6,"Bénéficiant d'une vue sur son jardin et d'une connexion Wi-Fi gratuite, l'établissement Les chambres du Chat Perché est idéalement situé au Havre, à proximité de la plage du Havre, de l'église...",https://www.booking.com/hotel/fr/les-chambres-du-chat-perche.fr.html,49.49948951,0.10641825,Le Havre
78,APPART. PERRET VUE PANORAMIQUE MER-PORT et CATENE,9.6,"Offrant une vue sur la mer, l'APPART. PERRET VUE PANORAMIQUE MER-PORT et CATENE est situé au Havre, à 1,7 km de la plage et à 500 mètres du Volcan. ",https://www.booking.com/hotel/fr/appart-perret-vue-panoramique-mer-port-et-catene.fr.html,49.486642,0.1112206,Le Havre
79,Romance spa tropical Le Havre,9.6,"Doté d'un jacuzzi, le Romance spa tropical Le Havre est situé au Havre. Doté d'un parking privé gratuit, il se trouve à 1,4 km de la plage du Havre et à 100 mètres de l'église Saint-Michel. ",https://www.booking.com/hotel/fr/romance-spa-tropical-le-havre.fr.html,49.4976392,0.1094497,Le Havre
80,Villa Raphaëlle #4 Centre ville avec parking,9.5,"Située au Havre, à 2,4 km de la plage du Havre, la Villa Raphaëlle #4 Centre ville avec parking propose un hébergement avec un salon commun, une connexion Wi-Fi gratuite, une réception ouverte 24h/24...",https://www.booking.com/hotel/fr/villa-raphaelle-4.fr.html,49.4972771,0.1230355,Le Havre
81,Appart LH L'Estuaire - F2 vue mer proximité plage,9.4,"Doté d'une connexion Wi-Fi gratuite et offrant une vue sur la mer, l'Appart LH L'Estuaire - F2 vue mer proximité plage est situé au Havre, à seulement 500 mètres de la plage du Havre et à 1,3 km de...",https://www.booking.com/hotel/fr/appart-lh-l-39-estuaire-f2-vue-mer-proximite-plage.fr.html,49.4993485,0.0950514,Le Havre
82,Villa Raphaëlle #2 Centre ville avec parking,9.4,"Située à 2,4 km de la plage du Havre, la Villa Raphaëlle #2 Centre ville avec parking propose un salon commun, une terrasse et une cuisine commune. ",https://www.booking.com/hotel/fr/villa-raphaelle-le-havre1.fr.html,49.4972771,0.1230355,Le Havre
83,Superbe appartement à 50m de la plage.,9.4,"Superbe appartement à 50m de la plage. Situé au Havre, à 300 mètres de la plage du Havre, à 1,2 km de l'église Saint-Joseph et de l'église Saint-Michel, le Havre propose des hébergements avec...",https://www.booking.com/hotel/fr/superbe-appartement-a-50m-de-la-plage.fr.html,49.4973244,0.0936447,Le Havre
84,CENTRE VILLE - WIFI - PARKING,9.3,"Le CENTRE VILLE - WIFI - PARKING est situé dans le quartier Perret du Havre, à 1,7 km de la plage du Havre, à moins de 1 km du Volcan et à 7 minutes à pied de l'appartement témoin Perret. ",https://www.booking.com/hotel/fr/centre-ville-wifi-parking.fr.html,49.4919618,0.11640553,Le Havre
85,Villa Raphaëlle #5 Centre ville avec parking,9.3,"La Villa Raphaëlle #5 Centre ville avec parking est située au Havre, à 2,1 km de la plage, à moins de 1 km de l'église Saint-Michel et à 15 minutes à pied de l'appartement témoin Perret. ",https://www.booking.com/hotel/fr/villa-raphaelle-5.fr.html,49.4972771,0.1230355,Le Havre
86,Romance Spa lofts haut de gamme avec sauna,9.3,"Doté d'une baignoire spa, le Romance Spa lofts haut de gamme avec sauna est situé au Havre. ",https://www.booking.com/hotel/fr/romance-spa-lofts-haut-de-gamme-avec-sauna.fr.html,49.48853029,0.11220104,Le Havre
87,Ciel&Mer,9.2,"Installé à Sainte-Adresse, à 45 km de Deauville, l’établissement Ciel&Mer propose un hébergement bénéficiant d’une terrasse et d’une vue sur la mer. ",https://www.booking.com/hotel/fr/ciel-amp-mer.fr.html,49.504187,0.082758,Le Havre
88,WIFI - PARKING GRATUIT - APPARTEMENT HAVRAIS,9.2,"Le WIFI - PARKING GRATUIT - APPARTEMENT HAVRAIS propose un hébergement avec connexion Wi-Fi gratuite au Havre, à 3,5 km du Volcan, à 3,6 km de l'appartement témoin Perret et à 3,7 km de l'église...",https://www.booking.com/hotel/fr/wifi-parking-gratuit-appartement-havrais.fr.html,49.5010486,0.1447203,Le Havre
89,"Le Verdun Doré - Appartement chic, avec balconet - 2 Ch",9.2,"Le Verdun Doré - Appartement chic, avec balconet - 2 Ch est situé au Havre, à 3,8 km de l'appartement témoin Perret, à 3,9 km de l'église Saint-Michel et à 4,5 km de l'église Saint-Joseph. ",https://www.booking.com/hotel/fr/le-verdun-appartement-chic-au-calme-avec-balconet.fr.html,49.5013227,0.1480167,Le Havre
90,LE MARITIME,9.2,"Situé au Havre, à seulement 1,4 km de la plage, l'établissement LE MARITIME propose un hébergement avec vue sur le jardin. Vous bénéficierez gratuitement d'une connexion Wi-Fi et d'un parking privé. ",https://www.booking.com/hotel/fr/le-maritime.fr.html,49.48546408,0.10549449,Le Havre
91,Villa Raphaëlle #3 Centre ville avec parking,9.2,"Dotée d'une terrasse, la Villa Raphaëlle #3 Centre ville avec parking est située au Havre, à 2,4 km de la plage du Havre, à 1,3 km de l'église Saint-Michel et à 1,8 km du Volcan. ",https://www.booking.com/hotel/fr/villa-raphaelle-1.fr.html,49.4972771,0.1230355,Le Havre
92,Duplex Modern & Design - Proche commerces,9.1,"Le Duplex Modern & Design - Proche commerces est situé au Havre, à moins de 1 km de l'église Saint-Michel, à 20 minutes à pied de l'appartement témoin Perret et à 2,2 km du Volcan. ",https://www.booking.com/hotel/fr/une-nuit-au-havre-duplex-renan.fr.html,49.49803188,0.11900012,Le Havre
93,Vue mer plage 60m2 - 4pers - Garage privatif,9.1,"Le Vue mer plage 60m2 - 4pers - Garage privatif est un hébergement en bord de mer situé au Havre, à moins de 1 km de l'église Saint-Joseph et à 13 minutes à pied de l'église Saint-Michel. ",https://www.booking.com/hotel/fr/les-pieds-dans-l-eau-plage.fr.html,49.4959695,0.0950445,Le Havre
94,Vivez Le Havre ! Studio en Résidence bord de mer - Port de plaisance - 3 Etoiles,9.1,"Situé au Havre, à moins de 1 km de la plage, le Vivez Le Havre! Le Studio en Résidence bord de mer - Port de plaisance - 3 Etoiles propose un hébergement en bord de mer avec un jardin et une connexion...",https://www.booking.com/hotel/fr/vivez-le-havre-studio-en-residence-bord-de-mer-port-de-plaisance.fr.html,49.48802872,0.09972564,Le Havre
95,LeThamyris - HYPER CENTRE avec Parking privé,9.1,"Situé à 1,9 km de la plage du Havre, à 1,2 km du Volcan et à moins de 1 km de l'église Saint-Michel, LeThamyris - HYPER CENTRE avec Parking privé propose un hébergement au Havre. ",https://www.booking.com/hotel/fr/lethamyris-hyper-centre-avec-parking-prive.fr.html,49.4932476,0.1182864,Le Havre
96,Studio agréable,9.1,"Situé au Havre, à seulement 2,9 km de la plage, le Studio agréable propose un hébergement avec vue sur le jardin. Vous bénéficierez gratuitement d'une connexion Wi-Fi et d'un parking privé. ",https://www.booking.com/hotel/fr/studio-agreable-le-havre.fr.html,49.5201941,0.0837986,Le Havre
97,Villa Raphaëlle #1 Centre ville avec parking,9.1,"Située au Havre, à 2,4 km de la plage du Havre, la Villa Raphaëlle #1 Centre ville avec parking propose un hébergement avec un salon commun, une connexion Wi-Fi gratuite, une réception ouverte 24h/24...",https://www.booking.com/hotel/fr/villa-raphaelle-1-le-havre.fr.html,49.4972771,0.1230355,Le Havre
98,La Parenthèse Havraise,9.1,"L'hébergement La Parenthèse Havraise est situé au Havre, à 300 mètres de l'église Saint-Michel, à 800 mètres de l'appartement témoin Perret et à 1,1 km du Volcan. ",https://www.booking.com/hotel/fr/la-parenthese-havraise-le-havre.fr.html,49.496836,0.1068932,Le Havre
99,L appart atelier au cœur du Havre,9.1,"L'appartement atelier au cœur du Havre est un hébergement en bord de mer situé au Havre, à 1,4 km de la plage et à 500 mètres de l'église Saint-Michel. ",https://www.booking.com/hotel/fr/l-appart-atelier-au-coeur-du-havre.fr.html,49.49378497,0.11101642,Le Havre
100,Une Chambre Dans L'atelier De R,9.9,"L'établissement Une Chambre Dans L'atelier De R est situé dans le centre-ville de Rouen, à 400 mètres de la cathédrale Notre-Dame de Rouen. ",https://www.booking.com/hotel/fr/une-chambre-dans-l-39-atelier-de-r.fr.html,49.44085994,1.09861067,Rouen
101,Chambres d'Hôtes La Maison,9.8,"Située au cœur d'un jardin paysager, la maison d'hôtes Chambres d'Hôtes La Maison se trouve à Rouen, à seulement 150 mètres de la station de métro Honoré de Balzac. ",https://www.booking.com/hotel/fr/chez-les-fontaines.fr.html,49.42699604,1.08464375,Rouen
102,Vicomte/Cosy-HyperCentreVille-Rouen/Netflix-Wifi/,9.8,"Situé dans le centre-ville de Rouen, à proximité de la cathédrale Notre-Dame, le Vicomte/Cosy-HyperCentreVille-Rouen/Netflix-Wifi/ dispose d'un jardin, d'une connexion Wi-Fi gratuite et d'un...",https://www.booking.com/hotel/fr/vicomte-cosy-hypercentreville-rouen-netflix-wifi.fr.html,49.44173351,1.08923537,Rouen
103,L'escale du Gros Horloge,9.7,Établissement Voyage Durable,https://www.booking.com/hotel/fr/escale-du-gros-horloge.fr.html,49.4418375,1.0912034,Rouen
104,L'Espace Privé Rouen,9.6,"L'espace Prive Rouen propose un studio avec baignoire spa et connexion Wi-Fi gratuite à Rouen. Situé au rez-de-chaussée, ce studio dispose d'un coin salon doté d'une télévision par câble à écran plat....",https://www.booking.com/hotel/fr/l-39-espace-prive-rouen.fr.html,49.444885,1.08819185,Rouen
105,L'Espace Privé 2 Rouen,9.6,"Doté d'une baignoire spa, l'Espace Privé 2 Rouen est situé en plein cœur de Rouen. ",https://www.booking.com/hotel/fr/espace-prive-2-rouen.fr.html,49.4449936,1.08782152,Rouen
106,Gaylor,9.6,"Situé dans le centre-ville de Rouen, à proximité de la cathédrale Notre-Dame, le Gaylor dispose d'une connexion Wi-Fi gratuite et d'un lave-linge. Vous bénéficierez d'un balcon privé. ",https://www.booking.com/hotel/fr/gaylor.fr.html,49.4415658,1.0911954,Rouen
107,Superbe appartement dans le quartier de la gare,9.5,"Le Superbe appartement dans le quartier de la gare est situé à Rouen, à 200 mètres de la gare de Rouen Rive Droite, à 1,1 km de la cathédrale Notre-Dame et à 4,6 km du palais des sports Kindarena. ",https://www.booking.com/hotel/fr/le-rive-droite-rouen.fr.html,49.4485027,1.09623344,Rouen
108,Joli appartement avec cour privée proche gare & centre ville,9.5,"Doté d'une connexion Wi-Fi et d'un parking privé gratuits, le Joli appartement avec cour privée proche gare & centre ville est situé à Rouen, à seulement 700 mètres de la gare de Rouen Rive Droite. ",https://www.booking.com/hotel/fr/charmant-t2-proche-gare-amp-centre-ville.fr.html,49.4505825,1.098711,Rouen
109,3DALIPHARD,9.5,"Le 3DALIPHARD est situé dans le centre de Rouen, à proximité de la cathédrale Notre-Dame, de la gare de Rouen Rive Droite et du musée des Beaux-Arts de Rouen. ",https://www.booking.com/hotel/fr/3daliphard.fr.html,49.4448978,1.1074499,Rouen
110,Chambre D'Hôtes le Phenix,9.4,Établissement Voyage Durable,https://www.booking.com/hotel/fr/chambre-d-39-hotes-le-phenix.fr.html,49.4649762,1.14245182,Rouen
111,Centre historique l'authentique Saint Nicolas ou le bourdon de la Cathédrale,9.4,"Situé dans le centre de Rouen, à seulement 200 mètres de la cathédrale Notre-Dame et à 3,4 km de la gare Voltaire, Rouen, Le Centre historique l'authentique Saint Nicolas ou le bourdon de la...",https://www.booking.com/hotel/fr/saint-nicolas-ou-le-bourdon-de-la-cathedrale.fr.html,49.44128755,1.0960871,Rouen
112,Bateau le Zimon - logement insolite,9.4,"Offrant une vue sur la ville, le Bateau le Zimon - logement insolite propose un hébergement avec une terrasse et une bouilloire, à environ 3,7 km de la cathédrale Notre-Dame de Rouen. ",https://www.booking.com/hotel/fr/le-zimon-bateau-logement.fr.html,49.44815808,1.05807793,Rouen
113,Maison individuelle dans ancienne ecurie,9.4,"Dotée d'un restaurant, d'un salon commun et d'un jardin, la Maison individuelle dans ancienne ecurie propose des hébergements à Rouen avec une connexion Wi-Fi gratuite et une vue sur le jardin. ",https://www.booking.com/hotel/fr/maison-individuelle-dans-ancienne-ecurie.fr.html,49.4502479,1.0864592,Rouen
114,Gîtes Les Lucioles,9.4,Établissement Voyage Durable,https://www.booking.com/hotel/fr/gites-les-lucioles.fr.html,49.46148646,1.06679314,Rouen
115,Magnifique appartement le Cottage Relax Balnéo,9.4,"Offrant une vue sur son jardin, le Magnifique appartement le Cottage Relax Balnéo est situé à Rouen, à 1 km du palais des sports Kindarena et à 4,3 km de la cathédrale Notre-Dame. ",https://www.booking.com/hotel/fr/magnifique-appartement-le-cottage-relax-balneo.fr.html,49.45290039,1.05901622,Rouen
116,Le Palm ✧ Duplex centre historique Rouen,9.3,Établissement Voyage Durable,https://www.booking.com/hotel/fr/le-palm-duplex-centre-historique-rouen.fr.html,49.4440375,1.086059,Rouen
117,Le Pavillon Bellevue,9.3,Établissement Voyage Durable,https://www.booking.com/hotel/fr/le-pavillon-bellevue.fr.html,49.4576405,1.1001792,Rouen
118,Chambres d'Hôtes de Manoir de Captot,9.3,"Situé à proximité de la forêt de Roumare, le Manoir de Captot du XVIIIe siècle vous accueille à seulement 5 km du centre-ville de Rouen. Le manoir dispose d'un mobilier d'époque. ",https://www.booking.com/hotel/fr/chambres-d-ha-tes-de-manoir-de-captot.fr.html,49.43671398,1.02529317,Rouen
119,le 4B - Le Vintage,9.3,Établissement Voyage Durable,https://www.booking.com/hotel/fr/le-4b.fr.html,49.4465442,1.0928109,Rouen
120,Fiquet de Normanville pour votre bien être en plein coeur historique,9.2,"Doté d'une connexion Wi-Fi gratuite et d'une vue sur la ville, le Fiquet de Normanville pour votre bien-être en plein cœur historique est un hébergement situé dans le centre de Rouen, à seulement 700...",https://www.booking.com/hotel/fr/fiquet-de-normanville.fr.html,49.44244414,1.09804968,Rouen
121,Passo,9.2,"Le Passo est situé dans le centre-ville de Rouen, à 700 mètres de la cathédrale Notre-Dame. ",https://www.booking.com/hotel/fr/passo.fr.html,49.44303409,1.08682113,Rouen
122,Le 4B - Le Tiki,9.2,Établissement Voyage Durable,https://www.booking.com/hotel/fr/le-4b-mathilde.fr.html,49.4465452,1.0929032,Rouen
123,DOMITYS Les Mosaïques,9.2,"Situé à 1 km de la gare de Voltaire, Rouen, le DOMITYS Les Mosaïques propose des hébergements, un restaurant, un bar, un salon commun et un jardin. ",https://www.booking.com/hotel/fr/domitys-les-mosaiques.fr.html,49.4290146,1.0832807,Rouen
124,Le Dix-Huit Studio Duplex,9.2,"Situé à Rouen, à 700 mètres de la cathédrale Notre-Dame, à 600 mètres de la gare de Rouen Rive Droite et à 3,7 km du palais des sports Kindarena, l'établissement Le Dix-Huit Studio Duplex propose un...",https://www.booking.com/hotel/fr/le-dix-huit-studio-duplex.fr.html,49.44575875,1.09643481,Rouen
125,Rodin's Home,10.0,"Le Rodin's Home propose un hébergement avec connexion Wi-Fi gratuite à Paris, à 500 mètres du musée Rodin, à moins de 1 km du musée d'Orsay et à 13 minutes à pied du musée de l'Orangerie. ",https://www.booking.com/hotel/fr/rodins-home.fr.html,48.8574451,2.3182956,Paris
126,Pied A Terre - Saint Honoré,10.0,"Dans un quartier central de Paris, à proximité de l'Opéra Garnier et de la Gare Saint-Lazare, Le Pied A Terre - Saint Honoré propose une connexion Wi-Fi gratuite, la climatisation et des équipements...",https://www.booking.com/hotel/fr/pied-a-terre-saint-honore.fr.html,48.8649007,2.3317134,Paris
127,Hier et Aujourd’hui 21,9.9,Établissement Voyage Durable,https://www.booking.com/hotel/fr/hier-et-aujourd-hui-21.fr.html,48.8220399,2.3098679,Paris
128,Le 48 Paris,9.9,Établissement Voyage Durable,https://www.booking.com/hotel/fr/le-48-paris.fr.html,48.872466,2.348657,Paris
129,"Appartement 2 pièces, 35m² proche Tour Eiffel",9.9,"L'Appartement 2 pièces, 35m2 proche Tour Eiffel est situé dans le 15ème arrondissement. Vous séjournerez à 2,7 km du musée Rodin, à 3,7 km du musée d'Orsay et à 3,9 km du musée de l'Orangerie. ",https://www.booking.com/hotel/fr/appartement-2-pieces-35m2-proche-tour-eiffel.fr.html,48.8445129,2.2941621,Paris
130,"Stylish,luxury duplex Paris city center",9.8,Établissement Voyage Durable,https://www.booking.com/hotel/fr/great-barrier-reef.fr.html,48.86945829,2.34788239,Paris
131,Relais12bis Bed & Breakfast By Eiffel Tower,9.8,Établissement Voyage Durable,https://www.booking.com/hotel/fr/relais-12-bis.fr.html,48.85384284,2.29421348,Paris
132,52 Clichy Bed & Breakfast - Chambre d'hôtes,9.8,Établissement Voyage Durable,https://www.booking.com/hotel/fr/52-clichy-b-amp-b.fr.html,48.88045347,2.32893781,Paris
133,Manolita Paris,9.8,Établissement Voyage Durable,https://www.booking.com/hotel/fr/manolita.fr.html,48.88399245,2.33272308,Paris
134,La Cour du 5ème - Chambre d'hôtes,9.8,Établissement Voyage Durable,https://www.booking.com/hotel/fr/la-cour-du-5a-me.fr.html,48.8410186,2.34867096,Paris
135,MaisondesChaumes-Paris,9.8,Établissement Voyage Durable,https://www.booking.com/hotel/fr/maisondeschaumes-paris.fr.html,48.8499428,2.2719569,Paris
136,Assia & Nathalie - Luxury B&B MARAIS,9.8,"Situé à Paris, à 1,2 km du centre Pompidou et à 1,6 km de la cathédrale Notre-Dame, l'Assia & Nathalie - Luxury B&B MARAIS offre une vue sur le jardin et propose une connexion Wi-Fi gratuite. ",https://www.booking.com/hotel/fr/parc-royal-marais.fr.html,48.85835622,2.3638564,Paris
137,Paris Parc Monceau Hotel Suite Flat,9.8,"Situé à Paris, à 1,7 km de l'Arc de Triomphe, Le Paris Parc Monceau Hotel Suite Flat propose un jardin, une connexion Wi-Fi gratuite et une réception ouverte 24h/24. ",https://www.booking.com/hotel/fr/paris-parc-monceau-suite-flat-paris1.fr.html,48.8812464,2.3083774,Paris
138,Bail Mobilité Luxe Palais Royal,9.8,"Situé dans le centre de Paris, à seulement 1,3 km du centre Pompidou et de l'opéra Garnier, le Bail Mobilité Luxe Palais Royal propose un hébergement avec vue sur la ville et connexion Wi-Fi gratuite....",https://www.booking.com/hotel/fr/bail-mobilite-luxe-palais-royal.fr.html,48.8660053,2.3417025,Paris
139,STUDIO JASMIN,9.8,Établissement Voyage Durable,https://www.booking.com/hotel/fr/studio-jasmin.fr.html,48.8508055,2.266571,Paris
140,Stunning apartment with view at the very heart of Paris,9.8,Établissement Voyage Durable,https://www.booking.com/hotel/fr/stunning-apartment-with-view-at-the-very-hearth-of-paris.fr.html,48.85833311,2.35009719,Paris
141,LE PATIO D'ALÉSIA,9.8,Établissement Voyage Durable,https://www.booking.com/hotel/fr/le-patio-d-alesia.fr.html,48.82483415,2.32019328,Paris
142,Top cozy apartment in the Upper Marais Area,9.8,Établissement Voyage Durable,https://www.booking.com/hotel/fr/top-cozy-apartment-in-the-upper-marais-area.fr.html,48.86002073,2.36816413,Paris
143,Edgar Suites Notre-Dame - Lagrange,9.8,Établissement Voyage Durable,https://www.booking.com/hotel/fr/edgar-suites-notre-dame-lagrange.fr.html,48.8508635,2.3480325,Paris
144,Prestige sur Louvre et Tuileries,9.8,"En plein cœur de Paris, à proximité du musée du Louvre et du musée de l'Orangerie, Le Prestige sur Louvre et Tuileries propose une connexion Wi-Fi gratuite, la climatisation et des équipements...",https://www.booking.com/hotel/fr/prestige-sur-louvre-et-tuileries.fr.html,48.8635368,2.333182,Paris
145,Champs Elysees,9.8,"Situé dans le centre de Paris, à proximité de l'Arc de Triomphe et de la tour Eiffel, le Champs Elysees propose une connexion Wi-Fi gratuite, la climatisation et des équipements ménagers tels qu'un...",https://www.booking.com/hotel/fr/champs-elysees-paris12345.fr.html,48.8700401,2.2962239,Paris
146,Paris My Home 5P Bastille,9.7,Établissement Voyage Durable,https://www.booking.com/hotel/fr/gorgeous-design-apartment-5p-bastille.fr.html,48.8590331,2.3767341,Paris
147,Maison Villeroy,9.7,Établissement Voyage Durable,https://www.booking.com/hotel/fr/villeroy-paris.fr.html,48.865229,2.304762,Paris
148,Luxury Apartment in Paris Center - Louvre Museum,9.7,Établissement Voyage Durable,https://www.booking.com/hotel/fr/appartements-priva-c-s.fr.html,48.86485063,2.34596001,Paris
149,Paris 16 superbe studio,9.7,"Doté d'une connexion Wi-Fi gratuite et offrant une vue sur le jardin, le Paris 16 superbe studio est un hébergement situé à Paris. ",https://www.booking.com/hotel/fr/paris-16-superbe-studio.fr.html,48.8650092,2.2706055,Paris
150,APPART COSY HYPER CENTRE DUPLEX GARE AMIENS 2PERS,10.0,"APPART COSY HYPER CENTRE DUPLEX GARE AMIENS 2PERS Situé à Amiens, à 200 mètres de la gare, à 3,3 km du Zénith d'Amiens et à moins de 1 km du parc des jardins flottants, l'établissement Amiens propose...",https://www.booking.com/hotel/fr/appart-cosy-hyper-centre-duplex-gare-amiens-2pers.fr.html,49.8896737,2.3086144,Amiens
151,Le 360° TOUR PERRET Panoramique LUXE 19E étage,9.9,Établissement Voyage Durable,https://www.booking.com/hotel/fr/appartement-alfonse-fiquet.fr.html,49.8910052,2.3064239,Amiens
152,15ème droite - Tour Perret - Centre-Ville - 4 étoiles,9.8,"Doté d'une connexion Wi-Fi gratuite et offrant une vue sur la ville, le 15ème droite - Tour Perret - Centre-Ville - 4 étoiles est un hébergement situé à Amiens, à seulement 1,1 km du musée Berny et du...",https://www.booking.com/hotel/fr/tour-perret-appartement-4-15eme-etage.fr.html,49.891036,2.306244,Amiens
153,L’ÉMERAUDE AMIENS,9.7,"Situé à Amiens, à seulement 2,6 km de la gare, l'établissement L'ÉMERAUDE AMIENS propose une salle de sport, un court de tennis, des services de massage et une connexion Wi-Fi gratuite. ",https://www.booking.com/hotel/fr/emeraude-amiens.fr.html,49.87000632,2.30806847,Amiens
154,LES PERLES AMIÉNOISES ☆ WHITE PEARL ☆ HYPER CENTRE ☆,9.7,"L'établissement LES PERLES AMIÉNOISES ☆ WHITE PEARL ☆ HYPER CENTRE ☆ est situé à Amiens, à 400 mètres de la gare, à 3,8 km du Zénith et à 700 mètres du parc des jardins flottants. ",https://www.booking.com/hotel/fr/les-perles-amienoises-white-pearl-hyper-centre.fr.html,49.8925625,2.3052844,Amiens
155,"Hyper centre Amiens, Studio élégant & cosy, proche gare",9.7,"Doté d'une connexion Wi-Fi gratuite, l'Hyper centre Amiens, Studio élégant & cosy, proche gare est situé à Amiens, à 400 mètres de la gare, à 3,8 km du Zénith et à 800 mètres du parc des jardins...",https://www.booking.com/hotel/fr/hyper-centre-amiens-studio-elegant-amp-cosy.fr.html,49.8922794,2.3050653,Amiens
156,Le Cocon des Hortillonnages d'Amiens,9.6,"Le Cocon des Hortillonnages d'Amiens propose un hébergement avec connexion Wi-Fi gratuite à Camon, à 3,5 km de la gare d'Amiens, à 6,7 km du Zénith d'Amiens et à 3,1 km du parc des jardins flottants. ",https://www.booking.com/hotel/fr/le-cocon-des-hortillonnages-camon.fr.html,49.8871919,2.3430831,Amiens
157,DOWNTOWN LOFT - CENTRE VILLE - WiFi - NETFLIX,9.6,"Le DOWNTOWN LOFT - CENTRE VILLE - WiFi - NETFLIX est situé à Amiens, à 1,2 km de la gare et à 2,9 km du Zénith, dans une région propice à la randonnée. ",https://www.booking.com/hotel/fr/downtown-loft-centre-ville-wifi-netflix.fr.html,49.89219043,2.29471652,Amiens
158,DOWNTOWN ROOFTOP - CENTRE VILLE - WiFi - TERRASSE - NETFLIX,9.6,Établissement Voyage Durable,https://www.booking.com/hotel/fr/downtown-rooftop-centre-ville-wifi-terrasse.fr.html,49.89220425,2.29473797,Amiens
159,Maison Longuevie,9.5,"Doté d’un jardin et d’une terrasse, le Maison Longuevie propose des hébergements avec une télévision à écran plat et une connexion Wi-Fi gratuite à Amiens, à 400 mètres du musée de Picardie. ",https://www.booking.com/hotel/fr/longuevie.fr.html,49.887694,2.294524,Amiens
160,Irziana - Au jardin d'Henriville,9.5,Établissement Voyage Durable,https://www.booking.com/hotel/fr/irziana-au-jardin-d-henriville.fr.html,49.87120975,2.30717093,Amiens
161,un Nid en Ville-a Nest in Town -AMIENS-classé 3 étoiles,9.5,Établissement Voyage Durable,https://www.booking.com/hotel/fr/un-nid-en-ville-a-nest-in-town-amiens.fr.html,49.8911006,2.2939301,Amiens
162,LE CANGE,9.5,"Doté d'un jardin et d'une terrasse, l'établissement LE CANGE propose des hébergements à Amiens avec une connexion Wi-Fi gratuite et une vue sur le jardin. ",https://www.booking.com/hotel/fr/le-cange.fr.html,49.896384,2.306378,Amiens
163,Le Majestic Cathédrale,9.4,Établissement Voyage Durable,https://www.booking.com/hotel/fr/le-duplex-amiens-pleine-vue-cathedrale.fr.html,49.8953831,2.297772,Amiens
164,DOWNTOWN COCOON - CENTRE VILLE - WiFi - NETFLIX,9.4,"Doté d'une connexion Wi-Fi gratuite et offrant une vue sur la ville, le DOWNTOWN COCOON - CENTRE VILLE - WiFi - NETFLIX est un hébergement situé à Amiens, à seulement 1,2 km de la gare et à 800 mètres...",https://www.booking.com/hotel/fr/downtown-cocoon-centre-ville-wifi-netflix.fr.html,49.89225955,2.29466287,Amiens
165,Ginkgo Maison d'hôtes,9.4,"Situé à Amiens, à moins de 1,3 km de la gare, le Ginkgo Maison d'hôtes propose un service de concierge, des chambres non-fumeurs, un salon commun, une connexion Wi-Fi gratuite dans l'ensemble de ses...",https://www.booking.com/hotel/fr/ginkgo-maison-d-39-hotes.fr.html,49.887125,2.295143,Amiens
166,"""Au jardin sur l'eau"" hortillonnages",9.4,"Située à Amiens, la maison d’hôtes ""Au jardin sur l'eau"" hortillonnages propose des hébergements avec le prêt de vélos, un parking privé gratuit, un jardin et une terrasse. ",https://www.booking.com/hotel/fr/au-jardin-sur-l-39-eau.fr.html,49.886683,2.335212,Amiens
167,LES JARDINS avec terrasse,9.4,Établissement Voyage Durable,https://www.booking.com/hotel/fr/les-jardins-amiens.fr.html,49.8961025,2.3107899,Amiens
168,LES TERRASSES,9.4,"Doté d'un jardin et d'une terrasse, l'établissement LES TERRASSES propose des hébergements à Amiens avec une connexion Wi-Fi gratuite et une vue sur le jardin. ",https://www.booking.com/hotel/fr/les-terrasses-amiens.fr.html,49.8995958,2.3118134,Amiens
169,Le Cottage des Hortillonnages,9.3,Établissement Voyage Durable,https://www.booking.com/hotel/fr/le-cottage-des-hortillons.fr.html,49.89755206,2.31635948,Amiens
170,LES PERLES AMIENOISES✩BLACK PEARL☆HYPER CENTRE☆,9.3,"L'établissement LES PERLES AMIENOISES✩BLACK PEARL☆HYPER CENTRE☆ est situé à Amiens, à 400 mètres du musée Berny et à 3,8 km du Zénith d'Amiens. ",https://www.booking.com/hotel/fr/les-perles-amienoisesblack-pearlhyper-centre.fr.html,49.8925625,2.3052844,Amiens
171,Amiens LOFT,9.3,L'Amiens LOFT propose un appartement dans le quartier de Saint-Leu. Il se trouve à 270 mètres du parc Saint-Pierre et offre une vue sur la cathédrale d'Amiens située à 400 mètres. ,https://www.booking.com/hotel/fr/amiens-loft.fr.html,49.89582519,2.30412349,Amiens
172,GRANDE MAISON COSY TERRASSE PARKING GARE 8PERS,9.3,"Dotée d'une connexion Wi-Fi et d'un parking privé gratuits, la GRANDE MAISON COSY TERRASSE PARKING GARE 8PERS est située à Amiens, à seulement 600 mètres de la gare. ",https://www.booking.com/hotel/fr/grande-maison-cosy-terrasse-parking-gare-8pers-amiens.fr.html,49.8925731,2.3118048,Amiens
173,L'Escale 80,9.3,"Situé à Amiens, l'établissement L'Escale 80 est implanté à 600 mètres de la cathédrale et à 14 minutes à pied de la Maison de Jules Verne. ",https://www.booking.com/hotel/fr/l-39-escale-80.fr.html,49.89641893,2.30637031,Amiens
174,Appartement 2 personnes : LES CANAUX,9.3,"Doté d'une connexion Wi-Fi et d'un parking privé gratuits, l'Appartement 2 personnes: LES CANAUX est situé à Amiens, à moins de 1 km de la gare. ",https://www.booking.com/hotel/fr/appartement-2-personnes-les-canaux.fr.html,49.8961025,2.3107899,Amiens
175,La Guesthouse chez Chris,9.7,"Situé à Lille, l'établissement La Guesthouse chez Chris propose des hébergements avec connexion Wi-Fi gratuite et télévision à écran plat, un salon commun et une terrasse. ",https://www.booking.com/hotel/fr/la-guesthouse-chez-chris.fr.html,50.63858246,3.08505893,Lille
176,Le Laurius,9.6,Établissement Voyage Durable,https://www.booking.com/hotel/fr/le-laurius.fr.html,50.63640343,3.06875348,Lille
177,Au 30,9.5,"Situé à Lille, à 50 mètres du Zénith et du Grand Palais, l'établissement Au 30 propose des appartements et des suites indépendants. La station de métro Mairie de Lille se trouve à seulement 400...",https://www.booking.com/hotel/fr/au-30.fr.html,50.63294839,3.07494975,Lille
178,Au Cœur De Lille,9.5,"Offrant une vue sur la ville, l'établissement Au Cœur De Lille est situé dans le centre de Lille, à moins de 1 km du grand magasin Printemps et à 10 minutes à pied du zoo de Lille. ",https://www.booking.com/hotel/fr/au-coeur-de-lille.fr.html,50.63551312,3.05439251,Lille
179,LA VILLA DES CHAMPS,9.5,Établissement Voyage Durable,https://www.booking.com/hotel/fr/la-villa-des-champs.fr.html,50.641914,3.085469,Lille
180,La Rosière de Marcq,9.4,Établissement Voyage Durable,https://www.booking.com/hotel/fr/la-rosiere-de-marcq.fr.html,50.6649948,3.0869751,Lille
181,Bateau péniche au coeur de Lille,9.4,"Doté d'un jardin et d'une connexion Wi-Fi gratuite, le Bateau péniche au coeur de Lille est situé dans le quartier des Bois Blancs à Lille, à moins de 1 km du zoo. ",https://www.booking.com/hotel/fr/bateau-peniche-au-coeur-de-lille.fr.html,50.63778,3.03605,Lille
182,Appt Hotel republique,9.3,"Situé dans le centre de Lille, à seulement 600 mètres de l'Hospice Gantois et à 400 mètres du grand magasin Printemps, l'Appt Hotel republique propose un hébergement avec vue sur la ville et connexion...",https://www.booking.com/hotel/fr/appt-republique.fr.html,50.6325081,3.062951,Lille
183,Appartement de charme Vieux-Lille,9.3,Établissement Voyage Durable,https://www.booking.com/hotel/fr/45-rue-de-la-clef.fr.html,50.6392412,3.0647584,Lille
184,La belle Monsoise,9.3,"Doté d'un jardin, l'établissement La belle Monsoise propose un hébergement à Mons-en-Baroeul, à 10 minutes en voiture du centre de Lille. ",https://www.booking.com/hotel/fr/la-belle-monsoise.fr.html,50.6511988,3.1080386,Lille
185,La Demeure Marcquoise,9.3,"Situé à Marcq-en-Baroeul, à 4,5 km de la gare de Lille-Europe et à 4,7 km de la tour de Lille, l'établissement La Demeure Marcquoise propose des hébergements avec connexion Wi-Fi gratuite et un jardin...",https://www.booking.com/hotel/fr/la-demeure-marcquoise.fr.html,50.670433,3.098407,Lille
186,Au Troubadour,9.3,Établissement Voyage Durable,https://www.booking.com/hotel/fr/au-troubadour.fr.html,50.63135145,3.11284035,Lille
187,L'Esplanade Lille,9.2,"L'établissement L'Esplanade Lille est situé dans le centre historique de Lille, en face de la citadelle, à 14 minutes de marche de la Grand-Place et à 21 minutes de route du stade Pierre-Mauroy. ",https://www.booking.com/hotel/fr/esplanade-lille.fr.html,50.64224688,3.05362254,Lille
188,Hyper centre chambre au calme,9.2,"Située à Lille, l'Hyper centre chambre au calme est une chambre double se trouvant à 100 mètres du Printemps, à 200 mètres de la place du Général-de-Gaulle et à 800 mètres du quartier du Vieux-Lille. ",https://www.booking.com/hotel/fr/chambre-de-standing-grand-place-nouveau-siecle.fr.html,50.63661565,3.06058085,Lille
189,Paddy's Place,9.2,"Doté d'une connexion Wi-Fi gratuite et offrant une vue sur la ville, le Paddy's Place est un hébergement situé dans le centre de Lille, à seulement 200 mètres du quartier du Vieux-Lille et de la...",https://www.booking.com/hotel/fr/paddy-39-s-place.fr.html,50.6364092,3.0615103,Lille
190,New West Room,9.2,"Le New West Room vous propose un hébergement avec petit-déjeuner à La Madeleine, en périphérie de Lille. Vous pourrez vous détendre sur la terrasse meublée tout en admirant la vue sur le jardin. ",https://www.booking.com/hotel/fr/new-west.fr.html,50.64988298,3.07648838,Lille
191,Les Cariatides,9.2,"Situé à Lille, à 500 mètres de la maison Coilliot et à 600 mètres du grand magasin Printemps, l'établissement Les Cariatides propose des hébergements avec une connexion Wi-Fi gratuite et une...",https://www.booking.com/hotel/fr/les-cariatides-lille.fr.html,50.631062,3.06031,Lille
192,aux abord de Lille - Bord de deule,9.2,"Situé à Marquette-lès-Lille, à 7,7 km du centre de Lille, l'établissement aux abords de Lille-Bord de deule propose des hébergements dotés d'une kitchenette et d'une terrasse. ",https://www.booking.com/hotel/fr/aux-abord-de-lille-bord-de-deule.fr.html,50.675964,3.061162,Lille
193,Le 7ème Art,9.2,"Situé à Lille, à 500 mètres de l'opéra, à 600 mètres de la Grand-Place et à moins de 1 km de la gare de Lille-Flandres, l'établissement Le 7ème Art propose un hébergement avec une terrasse et une...",https://www.booking.com/hotel/fr/le-7eme-art.fr.html,50.64120568,3.06606925,Lille
194,StudioLille - Saint Michel,9.2,"Situé dans un quartier central de Lille, le StudioLille - Saint Michel propose un hébergement avec vue sur la ville, à seulement 600 mètres de la maison Coilliot et à moins de 1 km de la braderie de...",https://www.booking.com/hotel/fr/studiolille-saint-michel.fr.html,50.62543,3.066129,Lille
195,Apartment Esquermoise,9.2,Établissement Voyage Durable,https://www.booking.com/hotel/fr/apartment-esquermoise.fr.html,50.6387659,3.0596164,Lille
196,Au Cœur du Jardin,9.1,"Situé à seulement 10 minutes à pied de la gare de Lille-Flandres TGV, l'établissement Au Cœur du Jardin propose des studios indépendants dotés d'une connexion Wi-Fi gratuite. ",https://www.booking.com/hotel/fr/au-caur-du-jardin.fr.html,50.62602253,3.06254625,Lille
197,Chez Jeanne et Vittorio,9.1,"Situé à seulement 4 km du centre de Lille, le Chez Jeanne et Vittorio propose des hébergements avec petit-déjeuner dans un établissement datant de 1886. ",https://www.booking.com/hotel/fr/chez-jeanne-et-vittorio.fr.html,50.6383471,3.02442022,Lille
198,Escalille le Royale,9.1,"Situé dans le quartier historique du Vieux-Lille, l'Escalille le Royale propose un appartement doté d'une connexion Wi-Fi gratuite et d'un patio. ",https://www.booking.com/hotel/fr/escalille-le-royale.fr.html,50.63961843,3.05879953,Lille
199,Escalille la Travia,9.1,"L'Escalille la Travia propose un appartement d'une chambre dans le centre historique de Lille, à 600 mètres de la Grand-Place. Ce logement à la décoration moderne offre une vue sur la cour. ",https://www.booking.com/hotel/fr/escalille-la-travia.fr.html,50.64215681,3.06402415,Lille
200,Appartement place Golbéry,10.0,"L'Appartement place Golbéry propose un hébergement avec connexion Wi-Fi gratuite à Strasbourg, à 500 mètres du jardin botanique de l'Université de Strasbourg, à 700 mètres de l'église Saint-Paul et à...",https://www.booking.com/hotel/fr/appartement-place-golbery.fr.html,48.58802,7.7668628,Strasbourg
201,Le Carré d'or - Appartement avec vue Cathédrale,9.9,"Situé dans le centre de Strasbourg, à 200 mètres de la cathédrale et à 1,1 km de l'église Saint-Paul, l'établissement Le Carré d'or - Appartement avec vue Cathédrale propose une connexion Wi-Fi...",https://www.booking.com/hotel/fr/golden-square-strasbourg.fr.html,48.58286106,7.74950094,Strasbourg
202,Maison des écluses Strasbourg F3 90m2 Jacuzzi Climatisation,9.8,Établissement Voyage Durable,https://www.booking.com/hotel/fr/la-maison-des-ecluses.fr.html,48.5708284,7.7090627,Strasbourg
203,Quai 17 Maison d'hôtes,9.7,"Le Quai 17 se trouve à 6 km du parc du château de Pourtales. Située à Strasbourg, la Maison d'hôtes propose une connexion Wi-Fi gratuite, un service d'enregistrement et de départ rapides ainsi qu'un...",https://www.booking.com/hotel/fr/quai-17-maison-d-39-hotes.fr.html,48.57871842,7.74954222,Strasbourg
204,Élégant studio à côté du Parlement,9.7,Établissement Voyage Durable,https://www.booking.com/hotel/fr/elegant-studio-a-cote-du-parlement-guestready.fr.html,48.5950048,7.7686991,Strasbourg
205,Le Dunant,9.7,"Situé à Strasbourg, à moins de 1 km du musée d'histoire, l'établissement Le Dunant propose un salon commun, une connexion Wi-Fi gratuite et une cuisine commune. ",https://www.booking.com/hotel/fr/le-dunant-strasbourg1.fr.html,48.579469,7.740528,Strasbourg
206,LE LOFT A BULLES (85m2 Jacuzzi Hammam Billiard Bar Douche Sauna),9.7,Établissement Voyage Durable,https://www.booking.com/hotel/fr/le-loft-a-bulles-85m2-jacuzzi-hammam-billiard-bar-douche-sauna.fr.html,48.5802181,7.7192088,Strasbourg
207,Le passage des cinq,9.6,"Situé à Eckbolsheim, l'établissement Le passage des cinq propose une connexion Wi-Fi gratuite, à 2,9 km du Zénith de Strasbourg et à 5 km du musée d'histoire de Strasbourg. ",https://www.booking.com/hotel/fr/atelier-eckbolsheim.fr.html,48.5805533,7.6889858,Strasbourg
208,Au Merlenchanteur,9.6,Établissement Voyage Durable,https://www.booking.com/hotel/fr/au-merlenchanteur.fr.html,48.606961,7.752028,Strasbourg
209,Relax And Go - Strasbourg Train Station,9.6,Établissement Voyage Durable,https://www.booking.com/hotel/fr/relax-amp-go-strasbourg-train-station.fr.html,48.58431346,7.73760085,Strasbourg
210,Comme chez vous,9.6,"Offrant une vue sur le jardin, le Comme chez vous propose un hébergement avec une terrasse et une bouilloire, à environ 1,8 km du Zénith de Strasbourg. ",https://www.booking.com/hotel/fr/comme-chez-vous-strasbourg1.fr.html,48.6007742,7.6996344,Strasbourg
211,Bel appartement,9.6,"Doté d'un barbecue et d'une terrasse, le Bel appartement est situé à Strasbourg, à 4,3 km de l'église Saint-Paul, à 4,7 km de la cathédrale et à 4,8 km du jardin botanique de l'Université de...",https://www.booking.com/hotel/fr/bel-appartement-strasbourg.fr.html,48.597625,7.715469,Strasbourg
212,Carpe Diem Home - Au pied de la Cathédrale,9.5,Établissement Voyage Durable,https://www.booking.com/hotel/fr/carpe-diem-home.fr.html,48.582077,7.749161,Strasbourg
213,L'Appart du Quai avec Terrasse,9.5,"L'Appart du Quai avec Terrasse propose un hébergement avec connexion Wi-Fi gratuite à Strasbourg, à moins de 1 km de la cathédrale, à 14 minutes à pied de l'église Saint-Paul et à 1,7 km du jardin...",https://www.booking.com/hotel/fr/l-39-appart-du-quai.fr.html,48.58679646,7.74724261,Strasbourg
214,LE LOFT 67,9.5,"Situé dans le centre de Strasbourg, à moins de 1,6 km de la cathédrale et à 2 km de l'église Saint-Paul, l'hébergement LE LOFT 67 offre une vue sur la ville. ",https://www.booking.com/hotel/fr/le-loft-67-strasbourg.fr.html,48.5867365,7.7437614,Strasbourg
215,Chez Carine,9.5,"Situé à Schiltigheim, à seulement 3,4 km du parc des expositions de Strasbourg, l'établissement Chez Carine propose un hébergement avec vue sur le jardin. ",https://www.booking.com/hotel/fr/chez-carine.fr.html,48.6073011,7.7313687,Strasbourg
216,Le Vicus,9.4,"Le Vicus est situé à Eckbolsheim, à 2,7 km du Zénith de Strasbourg et à 4,8 km du musée d'histoire de Strasbourg, dans une région où vous pourrez faire du vélo. ",https://www.booking.com/hotel/fr/le-vicus.fr.html,48.580461,7.691573,Strasbourg
217,"LE NID DE L'ILL, Magnifique Duplex Cosy Petite France",9.4,"Doté d'un salon commun et d'un court de tennis, l'établissement LE NID DE L'ILL, Magnifique Duplex Cosy Petite France propose un hébergement avec une connexion Wi-Fi gratuite et une vue sur le lac à...",https://www.booking.com/hotel/fr/le-nid-de-l-39-ill-magnifique-duplex-petite-france.fr.html,48.581173,7.73936,Strasbourg
218,L'Atelier,9.4,"Situé à 200 mètres de la Petite France à Strasbourg, L'Atelier propose un appartement doté d'une terrasse et d’un jardin avec terrasse. La cathédrale de Strasbourg vous attend à 700 mètres. ",https://www.booking.com/hotel/fr/l-39-atelier-strasbourg.fr.html,48.58230615,7.74012499,Strasbourg
219,Studio de l'Hôtel de Ville,9.4,Établissement Voyage Durable,https://www.booking.com/hotel/fr/studio-de-l-hotel-de-ville.fr.html,48.58402875,7.74983145,Strasbourg
220,Appartement COSY Hypercentre,9.4,"Doté d'une connexion Wi-Fi gratuite et offrant une vue sur la ville, l'Appartement COSY Hypercentre est situé au cœur de Strasbourg, à moins de 1 km du musée d'histoire et à 1,8 km de l'église...",https://www.booking.com/hotel/fr/appartement-cosy-hypercentre-strasbourg.fr.html,48.582366,7.740465,Strasbourg
221,Le Carré Confidentiel,9.4,"Le Carré Confidentiel propose un hébergement à Strasbourg, à 4,6 km du musée d'histoire de Strasbourg, à 5,6 km de l'église Saint-Paul et à 5,8 km du jardin botanique de l'Université de Strasbourg. ",https://www.booking.com/hotel/fr/le-carre-confidentiel.fr.html,48.54797197,7.74042782,Strasbourg
222,2 Pièces - Europe - Confort,9.4,Établissement Voyage Durable,https://www.booking.com/hotel/fr/2-pieces-neuf-calme-et-tout-confort.fr.html,48.5986861,7.7643209,Strasbourg
223,Le Pont Kuss,9.4,"Doté d'une connexion Wi-Fi gratuite et offrant une vue sur la ville, l'établissement Le Pont Kuss est situé à Strasbourg, à seulement 1,2 km du musée historique et de la cathédrale. ",https://www.booking.com/hotel/fr/pont-kuss.fr.html,48.5833278,7.7371511,Strasbourg
224,Appartement L'Ill au Sable,9.3,Établissement Voyage Durable,https://www.booking.com/hotel/fr/appartement-l-39-ill-au-sable.fr.html,48.58095174,7.75305828,Strasbourg
225,Si le coeur vous en dit,9.8,"Situé à Châtenois, à seulement 11 km du château du Haut Koenigsbourg, le Si le coeur vous en dit propose un hébergement avec vue sur la montagne. ",https://www.booking.com/hotel/fr/si-le-coeur-vous-en-dit.fr.html,48.2764298,7.3963622,Chateau du Haut Koenigsbourg
226,Location Chez Helmut,9.7,"Offrant une vue sur la ville, le Location Chez Helmut propose un bar, un barbecue et une terrasse, à environ 8,8 km du château du Haut Koenigsbourg. ",https://www.booking.com/hotel/fr/location-chez-helmut.fr.html,48.21727081,7.36214876,Chateau du Haut Koenigsbourg
227,Gîte Le Cep d'Or Alsace,9.7,"Doté d'une terrasse, le Gîte Le Cep d'Or Alsace est situé à Saint-Hippolyte, à 17 km du parc des expositions Colmar Expo, à 20 km de la Maison des Têtes et de la collégiale Saint-Martin. ",https://www.booking.com/hotel/fr/gite-le-cep-d-or-alsace.fr.html,48.23234385,7.37064322,Chateau du Haut Koenigsbourg
228,Gîte Spa La grange,9.7,Établissement Voyage Durable,https://www.booking.com/hotel/fr/gite-spa-la-grange.fr.html,48.24855216,7.4002698,Chateau du Haut Koenigsbourg
229,Gîte La Rodernelle - Sauna privatif - Climatisation - Vue sur le Château du Haut Kœnigsbourg,9.6,"Situé à Rodern, à 8,7 km du château du Haut Koenigsbourg et à 18 km du parc des expositions Colmar Expo, le Gîte La Rodernelle - Sauna privatif - Climatisation - Vue sur le Château du Haut Kœnigsbourg...",https://www.booking.com/hotel/fr/gite-rodern-chateau-du-haut-koenigsbourg.fr.html,48.22417211,7.35256755,Chateau du Haut Koenigsbourg
230,"À l'Orée des Vignes, Gîte classé 3 étoiles au centre de la Route des vins d'Alsace",9.6,Établissement Voyage Durable,https://www.booking.com/hotel/fr/a-l-oree-des-vignes-gite-classe-3-etoiles-au-centre-de-la-route-des-vins-d-alsac.fr.html,48.24117451,7.38275116,Chateau du Haut Koenigsbourg
231,"Les gîtes de la Tour, appartement ""La Plaine""",9.6,"Situé à Saint-Hippolyte, à 7,2 km du château du Haut Koenigsbourg, l'établissement Les gîtes de la Tour, appartement ""La Plaine"" dispose d'un salon avec une télévision à écran plat. ",https://www.booking.com/hotel/fr/les-gites-de-la-tour-appartement-quot-la-plaine-quot.fr.html,48.2311866,7.3700311,Chateau du Haut Koenigsbourg
232,Le Manoir des Sens - Forêt de Bergheim,9.5,Établissement Voyage Durable,https://www.booking.com/hotel/fr/la-sapiniere-thannenkirch.fr.html,48.234966,7.307145,Chateau du Haut Koenigsbourg
233,Le Familial,9.5,"Situé à Kintzheim, à 7,8 km du château du Haut Koenigsbourg, à 20 km du parc des expositions Colmar Expo et à 23 km de la Maison des Têtes, l'établissement Le Familial propose un hébergement avec un...",https://www.booking.com/hotel/fr/le-familial.fr.html,48.2559406,7.3937657,Chateau du Haut Koenigsbourg
234,Maison d'Hôtes Le Cep d'Or Alsace,9.5,"La Maison d'Hôtes Le Cep d'Or Alsace est située à Saint-Hippolyte, à 7,3 km du château du Haut Koenigsbourg et à 17 km de Colmar Expo. Il propose des chambres familiales et une terrasse. ",https://www.booking.com/hotel/fr/maison-d-39-hotes-le-cep-d-39-or.fr.html,48.232203,7.370081,Chateau du Haut Koenigsbourg
235,Le Grasberg,9.5,"Situé à Bergheim, l'établissement Le Grasberg propose un service de prêt de vélos, un jardin, une terrasse, une connexion Wi-Fi gratuite et une vue sur le jardin. ",https://www.booking.com/hotel/fr/le-grasberg-bergheim.fr.html,48.2071024,7.3573678,Chateau du Haut Koenigsbourg
236,Gite **** Le Meyerhof,9.4,"Offrant une vue sur le jardin, cette chambre dispose d'une connexion Wi-Fi gratuite. Le Gite **** Le Meyerhof est un hébergement situé à Rorschwihr. ",https://www.booking.com/hotel/fr/gite-le-meyerhof.fr.html,48.218105,7.364901,Chateau du Haut Koenigsbourg
237,Gîtes du Taennchel,9.4,Établissement Voyage Durable,https://www.booking.com/hotel/fr/gites-du-taennchel.fr.html,48.23521381,7.30225387,Chateau du Haut Koenigsbourg
238,La maison Céline,9.4,"L'établissement La maison Céline est situé à Bergheim, à 11 km du château du Haut Koenigsbourg, à 14 km du parc des expositions Colmar Expo et à 17 km de la Maison des Têtes. ",https://www.booking.com/hotel/fr/la-maison-celine.fr.html,48.206441,7.362987,Chateau du Haut Koenigsbourg
239,Les chambres au pied du Haut-Koenigsbourg,9.4,"Situé à Kintzheim, à moins de 1 km de Cigoland, l'établissement Les chambres au pied du Haut-Koenigsbourg propose un service de prêt de vélos, un jardin et une cuisine commune. ",https://www.booking.com/hotel/fr/les-chambres-au-pied-du-haut-koenigsbourg-kintzheim.fr.html,48.2572072,7.396435,Chateau du Haut Koenigsbourg
240,Sojolidays - Appartements d'hôtes & Brocante,9.3,Établissement Voyage Durable,https://www.booking.com/hotel/fr/appartements-sojolidays.fr.html,48.21696149,7.36273705,Chateau du Haut Koenigsbourg
241,La Cour St-Fulrad - Les Suites,9.3,"Situé à Saint-Hippolyte, l'établissement La Cour St-Fulrad - Les Suites propose des hébergements avec un patio ou un balcon, une connexion Wi-Fi gratuite, une télévision à écran plat, un jardin et une...",https://www.booking.com/hotel/fr/chambres-d-39-hotes-la-cour-st-fulrad.fr.html,48.23327616,7.36989498,Chateau du Haut Koenigsbourg
242,Au Coeur Du Vignoble,9.3,"Situé à Orschwiller, l'établissement Au Coeur Du Vignoble propose des hébergements avec un balcon ou une terrasse, une connexion Wi-Fi gratuite, une télévision à écran plat, une piscine extérieure...",https://www.booking.com/hotel/fr/au-coeur-du-vignoble.fr.html,48.2403582,7.38329996,Chateau du Haut Koenigsbourg
243,Gites Aux Fines Bulles d'Alsace,9.3,"Situé à Bergheim, à 11 km du château du Haut Koenigsbourg et à 14 km du parc des expositions Colmar Expo, le Gites Aux Fines Bulles d'Alsace offre une vue sur la ville et propose une connexion Wi-Fi...",https://www.booking.com/hotel/fr/gites-aux-fines-bulles-d-39-alsace.fr.html,48.2060149,7.3596756,Chateau du Haut Koenigsbourg
244,Entre Histoire et Terroir - 2 Gîtes de Charme,9.3,"Situé à Kintzheim, à 8 km du château du Haut Koenigsbourg et à 20 km du parc des expositions Colmar Expo, l'Entre Histoire et Terroir - 2 Gîtes de Charme propose un hébergement avec connexion Wi-Fi...",https://www.booking.com/hotel/fr/entre-histoire-et-terroir.fr.html,48.254692,7.394979,Chateau du Haut Koenigsbourg
245,Gîte L'Orée du Château - Appartement Potiron,9.3,"Offrant une vue sur la montagne, le Gîte L'Orée du Château - Appartement Potiron propose un hébergement avec un restaurant, un bar et un jardin, à environ 3,2 km du château du Haut Koenigsbourg. ",https://www.booking.com/hotel/fr/gite-l-39-oree-du-chateau.fr.html,48.24834892,7.35484448,Chateau du Haut Koenigsbourg
246,Gîte l'Authentique avec spa privatif,9.3,Établissement Voyage Durable,https://www.booking.com/hotel/fr/annexe-au-gite-des-trois.fr.html,48.241764,7.379303,Chateau du Haut Koenigsbourg
247,La Cour St-Fulrad - Appartements,9.2,Établissement Voyage Durable,https://www.booking.com/hotel/fr/cour-st-fulrad.fr.html,48.23324199,7.36988962,Chateau du Haut Koenigsbourg
248,Gîte Fahrer-Ackermann,9.2,"Situé sur la route des vins d'Alsace, le Gîte Fahrer-Ackermann se trouve dans un jardin de 1 300 m², dans le centre de Rorschwihr. Il propose un hébergement indépendant et une terrasse meublée. ",https://www.booking.com/hotel/fr/le-clos-du-vignoble-fahrer-ackermann.fr.html,48.21758786,7.3627941,Chateau du Haut Koenigsbourg
249,La bacchante,9.2,Établissement Voyage Durable,https://www.booking.com/hotel/fr/la-bacchante.fr.html,48.232016,7.367817,Chateau du Haut Koenigsbourg
250,Gîte Louise de la Maison saint-Josse,9.9,"Le Gîte Louise de la Maison saint-Josse est situé à Colmar, à 400 mètres de la collégiale Saint-Martin et à 1,4 km de la gare, dans une région propice à la randonnée. ",https://www.booking.com/hotel/fr/gite-louise-de-la-maison-saint-josse.fr.html,48.0747757,7.3626182,Colmar
251,Gite BI UNS chez Silvana,9.8,"Le Gite BI UNS chez Silvana est situé à Colmar, à 300 mètres de la collégiale Saint-Martin et à 1,1 km de la gare, dans une région propice à la randonnée. ",https://www.booking.com/hotel/fr/gite-bi-uns-chez-silvana.fr.html,48.07755485,7.35625497,Colmar
252,le tomi,9.8,"Offrant une vue sur le jardin et la montagne, l'établissement le tomi est situé à Colmar, à 700 mètres de la gare et à 1,3 km de la Maison des Têtes. ",https://www.booking.com/hotel/fr/le-tomi.fr.html,48.07379134,7.34405441,Colmar
253,Le coin de Fréderic,9.8,Établissement Voyage Durable,https://www.booking.com/hotel/fr/le-coin-de-frederic.fr.html,48.08412727,7.36457891,Colmar
254,L'Ourson,9.8,"Situé dans le centre de Colmar, à seulement 600 mètres de la collégiale Saint-Martin et à moins de 1 km de la Maison des Têtes, L'Ourson propose un hébergement avec vue sur la ville et connexion Wi-Fi...",https://www.booking.com/hotel/fr/ourson-colmar.fr.html,48.0780983,7.3645138,Colmar
255,"Les Suites 1902, Suite et jardin, Colmar Centre Petite Venise",9.8,Établissement Voyage Durable,https://www.booking.com/hotel/fr/les-suites-1902.fr.html,48.07048,7.363169,Colmar
256,"Combles et Vous, Duplex T6 Colmar, Famille, ALL INCLUSIVE, Jardin & Parking vélos",9.8,Établissement Voyage Durable,https://www.booking.com/hotel/fr/combles-et-vous.fr.html,48.07246843,7.34194977,Colmar
257,la kischte vintage,9.8,"Doté d'un jardin, d'une terrasse et d'une vue sur le jardin, l'établissement la kischte vintage est situé à Colmar, à 2 km de la gare. ",https://www.booking.com/hotel/fr/conteneur-maritime-la-kischte.fr.html,48.0674469,7.3683159,Colmar
258,Appartement FOCH à COLMAR,9.8,"Bénéficiant d'une terrasse et d'un service d'étage, l'Appartement FOCH à COLMAR est idéalement situé à Colmar, à 1,9 km du parc des expositions Colmar Expo et à 2,7 km de la Maison des Têtes. ",https://www.booking.com/hotel/fr/appartement-foch-a-colmar.fr.html,48.0927988,7.3704603,Colmar
259,Le gîte de Sabina - Colmar,9.8,Établissement Voyage Durable,https://www.booking.com/hotel/fr/le-gite-de-sabina-colmar-colmar1.fr.html,48.078685,7.363114,Colmar
260,kougelhopf,9.8,Établissement Voyage Durable,https://www.booking.com/hotel/fr/colmar-superbe-appartement-jusqu-a-6-voyageurs.fr.html,48.07709148,7.34807669,Colmar
261,Reflets Sur La Lauch appartements,9.7,Établissement Voyage Durable,https://www.booking.com/hotel/fr/reflets-sur-la-lauch.fr.html,48.0738774,7.3574744,Colmar
262,Castelnau,9.7,"Doté d'une connexion Wi-Fi gratuite dans l'ensemble de ses locaux, le Castelnau est situé à Colmar, à 900 mètres de la collégiale Saint-Martin. Un parking privé est disponible gratuitement sur place. ",https://www.booking.com/hotel/fr/chambres-d-39-hotes-castelnau.fr.html,48.07049955,7.35058363,Colmar
263,Appartement Magnîolia proche centre Ville,9.7,"L'Appartement Magnîolia proche centre Ville est situé à Colmar, à 1 km de la Maison des Têtes, à 2 km de la gare et à 2,8 km du parc des expositions Colmar Expo. ",https://www.booking.com/hotel/fr/gite-magniolia-colmar1.fr.html,48.07989419,7.366032,Colmar
264,Gite Bim Maidala,9.7,Établissement Voyage Durable,https://www.booking.com/hotel/fr/gite-bim-maidala.fr.html,48.0774799,7.3601742,Colmar
265,Au Gré de L'ill 'Les Cigognes',9.7,"Situé à Horbourg, à 2,9 km de la collégiale Saint-Martin, à 3,2 km de la Maison des Têtes et à 4 km de la gare de Colmar, L'établissement Au Gré de L'ill 'Les Cigognes' propose des hébergements avec...",https://www.booking.com/hotel/fr/1a-rue-du-rhin.fr.html,48.08096816,7.3886812,Colmar
266,Appart'Heim,9.7,"Doté d'une connexion Wi-Fi et d'un parking privé gratuits, l'Appart'Heim est situé à Colmar, à seulement 1,1 km de la gare. ",https://www.booking.com/hotel/fr/appart-39-heim.fr.html,48.073339,7.3581052,Colmar
267,Le NATURE 1 Chambre et sauna,9.7,"Situé à Colmar, à 700 mètres de la Maison des Têtes et à moins de 1 km de la collégiale Saint-Martin, l'établissement Le NATURE 1 Chambre et sauna propose des hébergements avec une connexion Wi-Fi...",https://www.booking.com/hotel/fr/nature-colmar.fr.html,48.0820075,7.3594099,Colmar
268,The Family industry,9.7,"Doté d'une connexion Wi-Fi gratuite, l'établissement The Family industry est situé à Colmar, à seulement 700 mètres de la collégiale Saint-Martin. ",https://www.booking.com/hotel/fr/the-family-industry.fr.html,48.07988317,7.36204853,Colmar
269,"Appartement avec terrasse ""MUSSLIN""",9.6,"Situé dans le quartier de la vieille ville de Colmar, à proximité de la Maison des Têtes, l'Appartement avec terrasse ""MUSSLIN"" dispose d'un barbecue, d'une connexion Wi-Fi gratuite et d'un...",https://www.booking.com/hotel/fr/appartement-quot-musslin-quot.fr.html,48.07847974,7.35522133,Colmar
270,Le Balcon de Colmar,9.6,Établissement Voyage Durable,https://www.booking.com/hotel/fr/le-balcon-de-colmar.fr.html,48.07588732,7.3586229,Colmar
271,LE 17,9.6,Établissement Voyage Durable,https://www.booking.com/hotel/fr/le-17-colmar.fr.html,48.078654,7.355786,Colmar
272,DUPLEX 15,9.6,Établissement Voyage Durable,https://www.booking.com/hotel/fr/duplex-15.fr.html,48.074099,7.358552,Colmar
273,Appartement A Travers Champs avec Sauna,9.6,"Doté d'une connexion Wi-Fi gratuite, l'appartement Appartement A Travers Champs avec Sauna se situe à Colmar, à 100 mètres de la collégiale Saint-Martin. ",https://www.booking.com/hotel/fr/les-cordonniers.fr.html,48.07681928,7.35747563,Colmar
274,LE 19 KLEBER,9.6,Établissement Voyage Durable,https://www.booking.com/hotel/fr/le-19-kleber.fr.html,48.07911115,7.35492973,Colmar
275,L'Hadestal,9.9,Établissement Voyage Durable,https://www.booking.com/hotel/fr/l-39-hadestal-maison-d-39-hotes.fr.html,48.010962,7.300608,Eguisheim
276,GITE LE COQ ROUGE,9.8,"Doté d'un jardin, d'un barbecue et d'une terrasse, le GITE LE COQ ROUGE propose un hébergement avec une connexion Wi-Fi gratuite et une vue sur la ville à Eguisheim. ",https://www.booking.com/hotel/fr/gite-le-coq-rouge.fr.html,48.04170911,7.3056928,Eguisheim
277,le tomi,9.8,"Offrant une vue sur le jardin et la montagne, l'établissement le tomi est situé à Colmar, à 700 mètres de la gare et à 1,3 km de la Maison des Têtes. ",https://www.booking.com/hotel/fr/le-tomi.fr.html,48.07379134,7.34405441,Eguisheim
278,"Les Suites 1902, Suite et jardin, Colmar Centre Petite Venise",9.8,Établissement Voyage Durable,https://www.booking.com/hotel/fr/les-suites-1902.fr.html,48.07048,7.363169,Eguisheim
279,"Combles et Vous, Duplex T6 Colmar, Famille, ALL INCLUSIVE, Jardin & Parking vélos",9.8,Établissement Voyage Durable,https://www.booking.com/hotel/fr/combles-et-vous.fr.html,48.07246843,7.34194977,Eguisheim
280,kougelhopf,9.8,Établissement Voyage Durable,https://www.booking.com/hotel/fr/colmar-superbe-appartement-jusqu-a-6-voyageurs.fr.html,48.07709148,7.34807669,Eguisheim
281,Reflets Sur La Lauch appartements,9.7,Établissement Voyage Durable,https://www.booking.com/hotel/fr/reflets-sur-la-lauch.fr.html,48.0738774,7.3574744,Eguisheim
282,Castelnau,9.7,"Doté d'une connexion Wi-Fi gratuite dans l'ensemble de ses locaux, le Castelnau est situé à Colmar, à 900 mètres de la collégiale Saint-Martin. Un parking privé est disponible gratuitement sur place. ",https://www.booking.com/hotel/fr/chambres-d-39-hotes-castelnau.fr.html,48.07049955,7.35058363,Eguisheim
283,Fleur de Vigne,9.7,"Situé à Eguisheim, à moins de 6 km de la gare de Colmar et à 7,3 km de la Maison des Têtes, le Fleur de Vigne propose des hébergements avec une connexion Wi-Fi gratuite, la climatisation et un jardin....",https://www.booking.com/hotel/fr/fleur-de-vignes-eguisheim.fr.html,48.0461134,7.3051632,Eguisheim
284,Gite La Fixoune,9.7,Établissement Voyage Durable,https://www.booking.com/hotel/fr/gite-la-fixoune.fr.html,48.0207403,7.27958542,Eguisheim
285,La Grange de Madeleine,9.7,"Offrant une vue sur la ville, La Grange de Madeleine est un hébergement situé à Eguisheim, à 7,8 km de la Maison des Têtes et à 8,2 km de la collégiale Saint-Martin. ",https://www.booking.com/hotel/fr/la-grange-de-madeleine.fr.html,48.0417829,7.3065467,Eguisheim
286,Appart'Heim,9.7,"Doté d'une connexion Wi-Fi et d'un parking privé gratuits, l'Appart'Heim est situé à Colmar, à seulement 1,1 km de la gare. ",https://www.booking.com/hotel/fr/appart-39-heim.fr.html,48.073339,7.3581052,Eguisheim
287,DUPLEX 15,9.6,Établissement Voyage Durable,https://www.booking.com/hotel/fr/duplex-15.fr.html,48.074099,7.358552,Eguisheim
288,Aux Grains Nobles,9.6,"Situé à moins de 11 km de la gare de Colmar et à 12 km de la Maison des Têtes, l'établissement Aux Grains Nobles propose une connexion Wi-Fi gratuite et un barbecue. ",https://www.booking.com/hotel/fr/aux-grains-nobles.fr.html,48.01965894,7.28162609,Eguisheim
289,Maison 1934 - Colmar Gare & Parking gratuit,9.6,Établissement Voyage Durable,https://www.booking.com/hotel/fr/maison-1934.fr.html,48.07188416,7.34382733,Eguisheim
290,La Pénate des 3 Châteaux,9.6,"Offrant une vue sur le jardin, La Pénate des 3 Châteaux propose un hébergement avec une terrasse et une bouilloire, à environ 10 km de la collégiale Saint-Martin. ",https://www.booking.com/hotel/fr/la-penate-des-3-chateaux.fr.html,48.0343618,7.2820582,Eguisheim
291,La Maison du Rempart,9.6,Établissement Voyage Durable,https://www.booking.com/hotel/fr/la-maison-du-rempart-eguisheim1.fr.html,48.04172203,7.3056037,Eguisheim
292,Le Petit Parc,9.5,Établissement Voyage Durable,https://www.booking.com/hotel/fr/le-petit-parc.fr.html,48.0690043,7.3610694,Eguisheim
293,Studio Maison Verte Colmar Centre,9.5,"Doté d'une connexion Wi-Fi gratuite et offrant une vue sur la ville, le Studio Maison Verte Colmar Centre est un hébergement situé en plein centre de Colmar, à moins de 1 km de la gare de Colmar et à...",https://www.booking.com/hotel/fr/studio-maison-verte.fr.html,48.07621732,7.35550654,Eguisheim
294,"Coeur d'Elsass ""RAPP""appartement avec parking",9.5,"Doté d'une connexion Wi-Fi et d'un parking privé gratuits, le Coeur d'Elsass ""RAPP""appartement avec parking est situé à Colmar, à seulement 300 mètres de la gare. ",https://www.booking.com/hotel/fr/coeur-d-39-elsass-quot-rapp-quot.fr.html,48.0739675,7.3481878,Eguisheim
295,Gite Moka45 Centre historique,9.5,"Situé à Colmar, le Gite Moka45 Centre historique propose un appartement et une connexion Wi-Fi gratuite dans l'ensemble de son enceinte, à 200 mètres de la collégiale Saint-Martin et à 400 mètres de...",https://www.booking.com/hotel/fr/gite45colmar.fr.html,48.0748218,7.3575534,Eguisheim
296,PETITE VENISE GITE SAINT PIERRE 2 PCES 4 ETOILES CLASSEMENT TOURISME,9.5,"Située dans le centre de Colmar, à seulement 1 km de la gare de Colmar et à 400 mètres de la collégiale Saint-Martin, la PETITE VENISE GITE SAINT PIERRE 2 PCES 4 ETOILES Le CLASSEMENT TOURISME propose...",https://www.booking.com/hotel/fr/petite-venise-gite-saint-pierre-2-pces-4-etoiles-classement-tourisme.fr.html,48.0736077,7.3577125,Eguisheim
297,BORD EAU Guest House,9.5,"Situé à Colmar, à 1,1 km de la gare et à 400 mètres de la collégiale Saint-Martin, le BORD EAU Guest House propose un hébergement climatisé avec vue sur la rivière et connexion Wi-Fi gratuite. ",https://www.booking.com/hotel/fr/bord-eau-guest-house.fr.html,48.073932,7.358957,Eguisheim
298,La belle alsacienne - Route des vins d'Alsace,9.4,"Situé à Hattstatt, La belle alsacienne - Route des vins d'Alsace possède un jardin et une terrasse. Vous profiterez gratuitement d'un parking privé et d'une connexion Wi-Fi. ",https://www.booking.com/hotel/fr/la-belle-alsacienne-i-route-des-vins-d-39-alsace.fr.html,48.012111,7.300794,Eguisheim
299,"Gîte romantique ""La Vigne Dort""",9.4,"Le Gîte romantique ""La Vigne Dort"" propose un hébergement avec connexion Wi-Fi gratuite à Herrlisheim-près-Colmar, à 7,4 km de la gare de Colmar, à 9,1 km de la Maison des Têtes et à 10 km de la...",https://www.booking.com/hotel/fr/la-vigne-dort.fr.html,48.01752909,7.32899338,Eguisheim
300,LE 46 : Superbe appartement jacuzzi,9.8,"Doté d'une terrasse bien exposée et d'un bureau d'excursions, l'établissement LE 46: Superbe appartement jacuzzi est idéalement situé à Besançon, à 1,9 km de la gare de Besançon-Viotte et à 3,4 km de...",https://www.booking.com/hotel/fr/le-46-superbe-appartement-jacuzzi.fr.html,47.2344606,6.0097058,Besancon
301,La Felicita,9.8,"Situé à Besançon, l'établissement La Felicita propose un bar, un spa et centre de bien-être, une connexion Wi-Fi gratuite et une vue sur la ville. ",https://www.booking.com/hotel/fr/la-felicita-besancon.fr.html,47.234911,6.029921,Besancon
302,L'adresse à Besançon,9.7,Établissement Voyage Durable,https://www.booking.com/hotel/fr/l-39-adresse-a-besancon.fr.html,47.24736834,6.03148374,Besancon
303,ATELIER DES REVES - au coeur de Besancon - 88 m2,9.6,Établissement Voyage Durable,https://www.booking.com/hotel/fr/atelier-des-reves-au-coeur-de-besancon.fr.html,47.2396698,6.0343043,Besancon
304,Besac Urban Lodge,9.6,Établissement Voyage Durable,https://www.booking.com/hotel/fr/besac-urban-lodge.fr.html,47.2681215,6.0416352,Besancon
305,Beure maison chaleureuse et cosy,9.6,"Offrant une vue sur la montagne, le Beure maison chaleureuse et cosy propose un hébergement avec un balcon et une bouilloire, à environ 3,4 km de Micropolis. ",https://www.booking.com/hotel/fr/beure-maison-chaleureuse-et-cosy.fr.html,47.2079277,6.0034784,Besancon
306,Le New York Bisontin,9.4,"Doté d'une connexion Wi-Fi et d'un parking privé gratuits, l'établissement Le New York Bisontin est situé à Besançon, à seulement 500 mètres de la gare de Besancon Viotte. ",https://www.booking.com/hotel/fr/le-new-york-bisontin.fr.html,47.24818544,6.01924119,Besancon
307,Besançon appartement T2 sur cour intérieure proximité gare,9.4,Établissement Voyage Durable,https://www.booking.com/hotel/fr/appartement-secteur-gare-besancon.fr.html,47.248488,6.0291489,Besancon
308,Appartement Au Quai 1921,9.4,"L'Appartement Au Quai 1921 propose un hébergement avec connexion Wi-Fi gratuite à Besançon, à 300 mètres du musée des beaux-arts et d'archéologie de Besançon, à 700 mètres du musée du temps de...",https://www.booking.com/hotel/fr/appartement-entier-centre-besancon.fr.html,47.2394335,6.0193371,Besancon
309,Chez DouKine,9.3,Établissement Voyage Durable,https://www.booking.com/hotel/fr/tournier.fr.html,47.211197,6.002933,Besancon
310,Le P'tit Montjoux - Appart avec Jardin proche gare,9.3,"Doté d'un jardin et d'une terrasse, Le P'tit Montjoux - Appart avec Jardin proche gare propose un hébergement à Besançon avec une connexion Wi-Fi gratuite et une vue sur le jardin. ",https://www.booking.com/hotel/fr/le-p-tit-montjoux-appart-avec-jardin-proche-gare.fr.html,47.2473938,6.0150062,Besancon
311,Chambre d'Hôtes La Villa Molina,9.2,"Installée dans un jardin arboré doté d'une terrasse ombragée, la Chambre d'Hôtes La Villa Molina est une villa française située à 5 minutes à pied de la gare de Viotte. ",https://www.booking.com/hotel/fr/la-villa-molina.fr.html,47.25044475,6.02088064,Besancon
312,Centre ville historique - calme - les mots bleus,9.2,"Situé à Besançon, à 1,2 km de la gare, le Centre ville historique - calme - les mots bleus propose un service de prêt de vélos, une connexion Wi-Fi gratuite et une réception ouverte 24h/24. ",https://www.booking.com/hotel/fr/centre-ville-historique-calme-les-mots-bleus.fr.html,47.233391,6.0283136,Besancon
313,La Bisontine,9.2,"L'établissement La Bisontine est situé à Besançon, à 1,3 km de la gare de Besançon-Mouillère, à 1,6 km de la gare de Besançon-Viotte et à 4,8 km de Micropolis. ",https://www.booking.com/hotel/fr/la-bisontine.fr.html,47.2351402,6.0245723,Besancon
314,"L'île d'Olive, appartement entier 2 à 4 personnes terrasse 25 m2 Besançon, proche CV, Micropolis et CHU",9.2,"Doté d'une connexion Wi-Fi et d'un parking privé gratuits, L'île d'Olive, appartement entier 2 à 4 personnes terrasse 25 m2 Besançon, proche CV, Micropolis et CHU est situé à Besançon, à seulement 1,9...",https://www.booking.com/hotel/fr/appartement-tres-calme-a-besancon-pour-2-personnes-avec-grande-terrasse.fr.html,47.2366798,6.0076126,Besancon
315,L’appart[é] BLACK superbe appartement pop !,9.2,"Vous bénéficierez d'une connexion Wi-Fi gratuite. parking privé gratuit, L’appart[é] BLACK superbe appartement pop! est situé à Besançon, à seulement 600 mètres de la gare de Besançon Viotte. ",https://www.booking.com/hotel/fr/appart-e-black-superbe-appartement-pop.fr.html,47.2487438,6.0287418,Besancon
316,Le Patio,9.2,"Offrant une vue sur le jardin, Le Patio propose un hébergement avec une terrasse et une bouilloire, à environ 1,4 km de la gare de Besançon Viotte. ",https://www.booking.com/hotel/fr/le-patio-besancon.fr.html,47.2574048,6.0146119,Besancon
317,"Les Glycines, un air de campagne à la ville",9.2,"Doté d'un jardin et d'une terrasse, l'établissement Les Glycines, un air de campagne à la ville propose un hébergement à Besançon avec une connexion Wi-Fi gratuite et une vue sur le jardin. ",https://www.booking.com/hotel/fr/les-glycines-un-air-de-campagne-a-la-ville.fr.html,47.2537306,6.0139147,Besancon
318,"LeCarnot 45 m2, CV, Garage et Piscine",9.1,Établissement Voyage Durable,https://www.booking.com/hotel/fr/appartement-lecarnot-centre-ville-avec-piscine.fr.html,47.2459593,6.0262719,Besancon
319,Appartement hyper centre ville au calme,9.1,"Situé à Besançon, à 1 km de la gare de Besançon-Mouillère et à 1,2 km de la gare de Besançon-Viotte, l'Appartement hyper centre ville au calme propose un hébergement avec une connexion Wi-Fi gratuite...",https://www.booking.com/hotel/fr/appartement-hyper-centre-ville-au-calme.fr.html,47.23842592,6.02553123,Besancon
320,Les Terrasses de La Malcombe,9.1,"Situé à Besançon, à 700 mètres du Micropolis, l'établissement Les Terrasses de La Malcombe propose un jardin, une connexion Wi-Fi gratuite et une réception ouverte 24h/24. ",https://www.booking.com/hotel/fr/les-terrasses-de-la-malcombe.fr.html,47.2244861,5.98300771,Besancon
321,Appartement avec sauna au pied de la citadelle,9.0,"Situé à Besançon, à 1,1 km de la gare de Besançon-Mouillère et à 1,9 km de la gare de Besançon-Viotte, l'Appartement avec sauna au pied de la citadelle propose un hébergement avec connexion Wi-Fi...",https://www.booking.com/hotel/fr/appartement-au-pied-de-la-citadelle-avec-sauna.fr.html,47.2338443,6.0287922,Besancon
322,"Maison chaleureuse 6, 8 personnes quartier Palente 3 chambres",9.0,Établissement Voyage Durable,https://www.booking.com/hotel/fr/maison-chaleureuse-6-8-personnes-quartier-palente.fr.html,47.2643088,6.0475745,Besancon
323,Villa duo,8.9,"Située à Besançon, à 4,1 km de la gare de Besançon-Viotte, la Villa duo propose un restaurant, un parking privé gratuit, un bar et un jardin. Il propose des chambres familiales et une terrasse. ",https://www.booking.com/hotel/fr/villa-duo.fr.html,47.260244,5.988918,Besancon
324,"Le Chasnot, proche gare et centre ville",8.9,"L'établissement Le Chasnot, proche gare et centre ville propose des hébergements avec connexion Wi-Fi gratuite à Besançon, à 500 mètres de la gare de Besançon-Viotte, à 1 km de la gare de...",https://www.booking.com/hotel/fr/le-chasnot-proche-gare-et-centre-ville.fr.html,47.2473325,6.0275023,Besancon
325,"Au calme proche du centre ville, gîte avec piscine",9.8,"Doté d'une piscine privée et offrant une vue sur le jardin, l'établissement Au calme proche du centre ville, gîte avec piscine est situé à Dijon. ",https://www.booking.com/hotel/fr/au-calme-proche-du-centre-ville-gite-avec-piscine.fr.html,47.3093787,5.0010076,Dijon
326,Les Jardins Secrets - Gare & Centre by Apparts Spa Dijon,9.7,Établissement Voyage Durable,https://www.booking.com/hotel/fr/les-jardins-secrets-appart-spa-gare-centre.fr.html,47.32528554,5.02885009,Dijon
327,Le Lion des Ducs : centre historique de Dijon,9.7,"Situé dans le centre de Dijon, Situé à seulement 1,2 km du parc des expositions Dijon Congrexpo et à 1,3 km de la gare de Dijon, Le Lion des Ducs: centre historique de Dijon propose un hébergement...",https://www.booking.com/hotel/fr/le-lion-des-ducs-centre-historique-de-dijon.fr.html,47.32300352,5.04291615,Dijon
328,Benigne Malyon,9.6,Établissement Voyage Durable,https://www.booking.com/hotel/fr/benigne-malyon.fr.html,47.3231056,5.04330485,Dijon
329,La Duchesse - Grand Appartement Au Coeur de Dijon,9.6,Établissement Voyage Durable,https://www.booking.com/hotel/fr/the-duchess-suite-heart-of-dijon.fr.html,47.32306418,5.04113227,Dijon
330,"Romantisme et glamour 2 avec spa , clim et jardin",9.6,"Situé à Dijon, à moins de 1,4 km du Zénith et à 2,9 km du parc des expositions Dijon Congrexpo, le Romantisme et glamour 2 avec spa, clim et jardin Il propose des hébergements avec une connexion Wi-Fi...",https://www.booking.com/hotel/fr/romantisme-et-glamour2.fr.html,47.3494887,5.048198,Dijon
331,La Terrasse,9.6,"Doté d'une terrasse avec vue sur le jardin, d'un jardin et d'un court de tennis, l'établissement La Terrasse se trouve à Dijon, à proximité du parc des expositions Dijon Congrexpo et à moins de 1 km...",https://www.booking.com/hotel/fr/la-terrasse-dijon.fr.html,47.32033658,5.04631799,Dijon
332,Loft APHRODITE,9.6,"Doté d'un bain à remous, le Loft APHRODITE est situé dans un quartier central de Dijon. Il se trouve à 3 km du parc des expositions Dijon Congrexpo et à 3,7 km de la station de tramway Chenove Centre....",https://www.booking.com/hotel/fr/loft-aphrodite.fr.html,47.3172455,5.0338968,Dijon
333,Le Loisy,9.5,"Installé en plein cœur de Dijon, l'établissement Le Loisy est un appartement moderne et indépendant doté d'une baignoire spa, situé à seulement 80 mètres de l'église Notre-Dame ainsi qu'à 1,5 km de la...",https://www.booking.com/hotel/fr/appartement-demain.fr.html,47.32321534,5.04123303,Dijon
334,Cosy T2 31m2 - Centre-Ville Dijon - Gare et Darcy,9.5,"Doté d'un jardin, le Cosy T2 31m2 - Centre-Ville Dijon - Gare et Darcy propose un hébergement avec une connexion Wi-Fi gratuite et une vue sur la ville à Dijon. ",https://www.booking.com/hotel/fr/cosy-t2-31m2-centre-ville-dijon-gare-et-darcy.fr.html,47.3251236,5.0298068,Dijon
335,Le Relais des Ducs : centre historique Dijon,9.5,"Le Relais des Ducs: centre historique Dijon est situé dans le quartier de Dijon Centre Ville, à 1,1 km de la gare, à 1 km de la station de tramway Foch-Gare et à 600 mètres de l'église...",https://www.booking.com/hotel/fr/le-relais-des-ducs-centre-historique-dijon.fr.html,47.3229683,5.0411886,Dijon
336,Appartement - Petit Buffon,9.5,Établissement Voyage Durable,https://www.booking.com/hotel/fr/appartement-petit-buffon.fr.html,47.31930014,5.04444334,Dijon
337,Le jardin Wilson,9.5,"Doté d'un jardin et d'une terrasse, Le jardin Wilson propose un hébergement à Dijon avec une connexion Wi-Fi gratuite et une vue sur le jardin. ",https://www.booking.com/hotel/fr/le-jardin-wilson.fr.html,47.3157875,5.0409475,Dijon
338,Le Néflier Dijon - appart jacuzzi-SPA romantique pour 2,9.5,"Situé à Dijon, l'établissement Le Néflier Dijon - appart jacuzzi-SPA romantique pour 2 propose un hébergement réservé aux adultes avec un barbecue, un spa et centre de bien-être ainsi qu'une terrasse....",https://www.booking.com/hotel/fr/le-neflier-dijon-appart-jacuzzi-romantique-pour-2.fr.html,47.3149073,5.0496197,Dijon
339,Le Nid de la Chouette - Gare & Cité Gastronomique by Apparts Spa Dijon,9.4,Établissement Voyage Durable,https://www.booking.com/hotel/fr/le-nid-de-la-chouette-appart-spa.fr.html,47.319658,5.0251729,Dijon
340,Appartement Familial Climatisé 100M2 à 7mn Centre Ville Parking 5Pièces 5 Adultes et Bébé,9.4,Établissement Voyage Durable,https://www.booking.com/hotel/fr/magnifique-appartement-place-st-joseph-dijon.fr.html,47.314709,5.0393276,Dijon
341,"Dijon : plein coeur de ville, à 2 pas du Tram",9.4,"Le Dijon: plein coeur de ville, à 2 pas du Tram propose un hébergement avec connexion Wi-Fi gratuite à Dijon, à 1,1 km du parc des expositions Dijon Congrexpo, à 1,3 km de la gare de Dijon et à 1,2 km...",https://www.booking.com/hotel/fr/dijon-plein-coeur-de-ville-a-2-pas-du-tram.fr.html,47.324907,5.0426574,Dijon
342,"Centre historique Dijon ""Le Charmant"" et ""Le Charmant Bis""",9.4,"Bénéficiant d'une vue sur la ville, d'une terrasse et d'une connexion Wi-Fi gratuite, le Centre historique Dijon ""Le Charmant"" et ""Le Charmant Bis"" propose un hébergement idéalement situé à Dijon, à...",https://www.booking.com/hotel/fr/appart-centre-historique-quot-le-charmant-quot.fr.html,47.32293903,5.04287595,Dijon
343,La Suite Indivio - Appartement standing vue cathédrale,9.4,"Situé en plein centre de Dijon, à proximité de l'église Saint-Philibert et de la gare, l'établissement La Suite Indivio - Appartement standing vue cathédrale propose une connexion Wi-Fi gratuite, la...",https://www.booking.com/hotel/fr/la-suite-indivio-appartement-de-standing-au-coeur-de-dijon.fr.html,47.3211451,5.0340556,Dijon
344,Maison d'hôtes des Perrières,9.4,"Située à Dijon, en Bourgogne, à moins de 1,2 km de la gare, la Maison d'hôtes des Perrières propose des hébergements avec une connexion Wi-Fi gratuite, un barbecue, un service de prêt de vélos et un...",https://www.booking.com/hotel/fr/maison-d-39-hotes-des-perrieres.fr.html,47.32514955,5.01636055,Dijon
345,Fontainespa21,9.3,Établissement Voyage Durable,https://www.booking.com/hotel/fr/fontainespa21.fr.html,47.3471128,5.0308605,Dijon
346,La parenthèse,9.3,"L'établissement La parenthèse est situé à Dijon, à moins de 1 km de la gare et à 9 minutes à pied de la station de tramway Foch-Gare, dans une région propice à la randonnée. ",https://www.booking.com/hotel/fr/la-parenthese-dijon.fr.html,47.32655765,5.0347366,Dijon
347,Bel Appartement 7mn Centre Ville 95M2 4 Adultes et Bébé avec Garage Sous sol,9.3,"Doté d'une connexion Wi-Fi et d'un parking privé gratuits, le Bel Appartement 7mn Centre Ville 95M2 4 Adultes et Bébé avec Le Garage Sous sol est situé à Dijon, à seulement 800 mètres de l'église...",https://www.booking.com/hotel/fr/bel-appartement-place-saint-joseph-4-a-5-pers-95m2-dijon.fr.html,47.3157175,5.0366648,Dijon
348,Le Vénus - Appartement SPA Privatif Balnéo Sauna,9.3,Établissement Voyage Durable,https://www.booking.com/hotel/fr/le-venus.fr.html,47.33489,5.022864,Dijon
349,PatioNé dans Centre de Dijon,9.3,"Situé à Dijon, à 300 mètres de la gare, de la station de tramway Foch-Gare et à 700 mètres de l'église Saint-Philibert, le PatioNé dans Centre de Dijon propose un hébergement avec une terrasse et une...",https://www.booking.com/hotel/fr/patione-dans-centre-de-dijon.fr.html,47.32527212,5.02936077,Dijon
350,Studio cosy à deux pas du centre ville,10.0,"Le Studio cosy à deux pas du centre ville propose un hébergement avec connexion Wi-Fi gratuite à Annecy, à 31 km de Rochexpo, à 36 km du stade de Genève et à 37 km du lac du Bourget. ",https://www.booking.com/hotel/fr/studio-cosy-a-deux-pas-du-centre-ville.fr.html,45.9164734,6.1233939,Annecy
351,Le Loft d'Annecy - Vision Luxe,9.9,Établissement Voyage Durable,https://www.booking.com/hotel/fr/le-loft-d-39-annecy.fr.html,45.8983649,6.12775239,Annecy
352,Le Paon Bleu,9.9,"Situé à Poisy, l'établissement Le Paon Bleu propose un bar, un salon commun, un jardin et des installations de sports nautiques. ",https://www.booking.com/hotel/fr/le-paon-bleu.fr.html,45.918341,6.074141,Annecy
353,chez Marjorie,9.8,"Situé dans le centre d'Annecy, à seulement 36 km de Rochexpo et du lac du Bourget, l'établissement chez Marjorie propose un hébergement avec vue sur le jardin et connexion Wi-Fi gratuite. ",https://www.booking.com/hotel/fr/chez-marjorie.fr.html,45.9016364,6.1258223,Annecy
354,Le Thiou Paradise Annecy,9.7,"Le Thiou Paradise Annecy se situe dans le cœur de la vieille ville d'Annecy, à quelques pas du lac d'Annecy. Vous bénéficierez gracieusement d'une connexion Wi-Fi. ",https://www.booking.com/hotel/fr/le-thiou-paradise.fr.html,45.8984084,6.1247536,Annecy
355,l'appart du 7,9.7,Établissement Voyage Durable,https://www.booking.com/hotel/fr/appart-du-7.fr.html,45.9072222,6.1234202,Annecy
356,Les Catalons,9.6,L’établissement Les Catalons est une villa indépendante située à Sévrier et équipée d'une connexion Wi-Fi gratuite dans toutes les pièces. Il se trouve à 200 mètres du lac d'Annecy. ,https://www.booking.com/hotel/fr/les-catalons.fr.html,45.87584874,6.13943788,Annecy
357,Studio Urban Chic Annecy,9.6,"Installé dans le cœur d'Annecy, le Studio Urban Chic Annecy est un appartement situé au deuxième étage d'un immeuble avec ascenseur. ",https://www.booking.com/hotel/fr/studio-urban-chic-annecy.fr.html,45.9047946,6.12970108,Annecy
358,The One Suite Annecy,9.6,Établissement Voyage Durable,https://www.booking.com/hotel/fr/the-one-suite-annecy.fr.html,45.905935,6.138948,Annecy
359,La Perle de la Vieille ville d'Annecy,9.5,Établissement Voyage Durable,https://www.booking.com/hotel/fr/la-perle-de-la-vieille-ville-d-39-annecy.fr.html,45.898516,6.12523,Annecy
360,Maison Paul & Romy- L'horloge,9.5,"Située dans le centre d'Annecy, à environ 36 km de Rochexpo, la Maison Paul & Romy- L'horloge propose une connexion Wi-Fi gratuite, la climatisation et des équipements ménagers tels qu'une bouilloire...",https://www.booking.com/hotel/fr/maison-paul-amp-romy-l-39-horloge.fr.html,45.89841926,6.12480955,Annecy
361,Le petit bonlieu,9.5,"Situé dans le centre d'Annecy, à seulement 32 km de Rochexpo et à 37 km du lac du Bourget, Le petit bonlieu propose un hébergement avec vue sur la ville et connexion Wi-Fi gratuite. ",https://www.booking.com/hotel/fr/le-petit-bonlieu.fr.html,45.9027541,6.1267064,Annecy
362,La Perle du Semnoz,9.5,Établissement Voyage Durable,https://www.booking.com/hotel/fr/la-perle-du-semnoz.fr.html,45.8909688,6.1227048,Annecy
363,HIMALAYA Annecy Rent Lodge,9.5,"Situé dans un quartier central d'Annecy, à environ 37 km de Rochexpo, l'HIMALAYA Annecy Rent Lodge propose une connexion Wi-Fi gratuite, la climatisation et des équipements ménagers tels qu'une...",https://www.booking.com/hotel/fr/himalaya-by-annecy-rent-lodge.fr.html,45.8990746,6.1281462,Annecy
364,"LA COSTIERE DU LAC - ANNECY - Vieille ville, Plage, Garage",9.5,"L'hébergement LA COSTIERE DU LAC - ANNECY - Vieille ville, Plage, Garage est situé à Annecy, à 500 mètres du château d'Annecy, à 200 mètres de la CITIA et à 300 mètres de l'école d'art d'Annecy. ",https://www.booking.com/hotel/fr/la-costiere-du-lac.fr.html,45.89592899,6.13144446,Annecy
365,Le SwansDoors - OVO Network,9.5,"Situé dans le centre d'Annecy, à seulement 36 km de Rochexpo et à 37 km du lac du Bourget, l'établissement Le SwansDoors - OVO Network propose des hébergements avec vue sur la ville et connexion Wi-Fi...",https://www.booking.com/hotel/fr/le-swansdoors.fr.html,45.897922,6.127368,Annecy
366,Les Pics Verts,9.5,"L'établissement Les Pics Verts est situé à Annecy, à 37 km de Rochexpo, à 43 km du stade de Genève et à 44 km de SavoiExpo. ",https://www.booking.com/hotel/fr/les-pics-verts.fr.html,45.8808713,6.0917248,Annecy
367,CHEZ JACQUES - terrasse avec vue lac et montagne,9.5,"Offrant une vue sur la montagne, le CHEZ JACQUES - terrasse avec vue lac et montagne propose un hébergement avec une terrasse et une bouilloire, à environ 2,3 km du palais de l'Île. ",https://www.booking.com/hotel/fr/chez-jacques-terrasse-avec-vue-lac-et-montagne.fr.html,45.9065007,6.1539955,Annecy
